[{"id":"6522","label":"1,2-XYLENE O-XYLENE 6522 - btx, o-xyleen - procedure, 41B006 - Bruxelles (Parlement UE)","uom":"ug/m3","station":{"properties":{"id":1112,"label":"41B006 - Bruxelles (Parlement UE)"},"geometry":{"coordinates":[4.374388283352736,50.83863118763396,"NaN"],"type":"Point"},"type":"Feature"}},{"id":"6202","label":"Benzene 6202 - ? - procedure, 40GK09 - GENK","uom":"ug/m3","station":{"properties":{"id":1045,"label":"40GK09 - GENK"},"geometry":{"coordinates":[5.492788429595824,50.934631219113264,"NaN"],"type":"Point"},"type":"Feature"}},{"id":"6274","label":"Benzene 6274 - Synspec - procedure, 40LD01 - LAAKDAL","uom":"ug/m3","station":{"properties":{"id":1058,"label":"40LD01 - LAAKDAL"},"geometry":{"coordinates":[5.0048643935877655,51.10997612046681,"NaN"],"type":"Point"},"type":"Feature"}},{"id":"6283","label":"Benzene 6283 - Synspec - procedure, 40LD02 - LAAKDAL","uom":"ug/m3","station":{"properties":{"id":1059,"label":"40LD02 - LAAKDAL"},"geometry":{"coordinates":[5.021545977609836,51.12038413709927,"NaN"],"type":"Point"},"type":"Feature"}},{"id":"6487","label":"Benzene 6487 - Airmotec 10000S plus benzeen - procedure, 40ZL01 - ZELZATE","uom":"ug/m3","station":{"properties":{"id":1107,"label":"40ZL01 - ZELZATE"},"geometry":{"coordinates":[3.8084003239516564,51.203141426072094,"NaN"],"type":"Point"},"type":"Feature"}},{"id":"6519","label":"Benzene 6519 - btx, benzeen - procedure, 41B006 - Bruxelles (Parlement UE)","uom":"ug/m3","station":{"properties":{"id":1112,"label":"41B006 - Bruxelles (Parlement UE)"},"geometry":{"coordinates":[4.374388283352736,50.83863118763396,"NaN"],"type":"Point"},"type":"Feature"}},{"id":"6733","label":"Benzene 6733 - Airmotec 1000 - procedure, 42N045 - HASSELT","uom":"ug/m3","station":{"properties":{"id":1140,"label":"42N045 - HASSELT"},"geometry":{"coordinates":[5.368378532294256,50.93971186506705,"NaN"],"type":"Point"},"type":"Feature"}},{"id":"6780","label":"Benzene 6780 - Airmotec 1000 - procedure, 42R801 - BORGERHOUT","uom":"ug/m3","station":{"properties":{"id":1147,"label":"42R801 - BORGERHOUT"},"geometry":{"coordinates":[4.431821046968842,51.20966253090978,"NaN"],"type":"Point"},"type":"Feature"}},{"id":"6842","label":"Benzene 6842 - Airmotec 1000 - procedure, 40R833 - STABROEK","uom":"ug/m3","station":{"properties":{"id":1161,"label":"40R833 - STABROEK"},"geometry":{"coordinates":[4.3622605932003715,51.327658871495316,"NaN"],"type":"Point"},"type":"Feature"}},{"id":"7050","label":"Benzene 7050 - btx, benzeen - procedure, 44N029 - HOUTEM","uom":"ug/m3","station":{"properties":{"id":1202,"label":"44N029 - HOUTEM"},"geometry":{"coordinates":[2.5823227814897467,51.016280111137796,"NaN"],"type":"Point"},"type":"Feature"}},{"id":"7080","label":"Benzene 7080 - Airmotec 1000 - procedure, 44R701 - GENT","uom":"ug/m3","station":{"properties":{"id":1207,"label":"44R701 - GENT"},"geometry":{"coordinates":[3.729298171690588,51.05833171626465,"NaN"],"type":"Point"},"type":"Feature"}},{"id":"10602","label":"Black Carbon 10602 -  - procedure, 44R701 - GENT","uom":"ug/m3","station":{"properties":{"id":1207,"label":"44R701 - GENT"},"geometry":{"coordinates":[3.729298171690588,51.05833171626465,"NaN"],"type":"Point"},"type":"Feature"}},{"id":"10603","label":"Black Carbon 10603 -  - procedure, 42R801 - BORGERHOUT","uom":"ug/m3","station":{"properties":{"id":1147,"label":"42R801 - BORGERHOUT"},"geometry":{"coordinates":[4.431821046968842,51.20966253090978,"NaN"],"type":"Point"},"type":"Feature"}},{"id":"10604","label":"Black Carbon 10604 -  - procedure, 42R802 - BORGERHOUT","uom":"ug/m3","station":{"properties":{"id":1148,"label":"42R802 - BORGERHOUT"},"geometry":{"coordinates":[4.43179223079244,51.20951873158326,"NaN"],"type":"Point"},"type":"Feature"}},{"id":"10605","label":"Black Carbon 10605 -  - procedure, 44R750 - ZELZATE","uom":"ug/m3","station":{"properties":{"id":1214,"label":"44R750 - ZELZATE"},"geometry":{"coordinates":[3.8229200468043345,51.19606326849909,"NaN"],"type":"Point"},"type":"Feature"}},{"id":"10606","label":"Black Carbon 10606 -  - procedure, 44N029 - HOUTEM","uom":"ug/m3","station":{"properties":{"id":1202,"label":"44N029 - HOUTEM"},"geometry":{"coordinates":[2.5823227814897467,51.016280111137796,"NaN"],"type":"Point"},"type":"Feature"}},{"id":"10607","label":"Black Carbon 10607 -  - procedure, 41R012 - UCCLE","uom":"ug/m3","station":{"properties":{"id":1122,"label":"41R012 - UCCLE"},"geometry":{"coordinates":[4.358538856351676,50.79663163849774,"NaN"],"type":"Point"},"type":"Feature"}},{"id":"10608","label":"Black Carbon 10608 -  - procedure, 42N045 - HASSELT","uom":"ug/m3","station":{"properties":{"id":1140,"label":"42N045 - HASSELT"},"geometry":{"coordinates":[5.368378532294256,50.93971186506705,"NaN"],"type":"Point"},"type":"Feature"}},{"id":"10609","label":"Black Carbon 10609 -  - procedure, 42N016 - DESSEL","uom":"ug/m3","station":{"properties":{"id":1132,"label":"42N016 - DESSEL"},"geometry":{"coordinates":[5.163978846331755,51.23365220616215,"NaN"],"type":"Point"},"type":"Feature"}},{"id":"10690","label":"Black Carbon 10690 - Unknown device - procedure, 40SA04 - Hoevenen","uom":"ug/m3","station":{"properties":{"id":1719,"label":"40SA04 - Hoevenen"},"geometry":{"coordinates":[4.403868139749608,51.31392889414465,"NaN"],"type":"Point"},"type":"Feature"}},{"id":"10693","label":"Black Carbon 10693 - Unknown device - procedure, 41N043 - HAREN","uom":"ug/m3","station":{"properties":{"id":1117,"label":"41N043 - HAREN"},"geometry":{"coordinates":[4.3829632518023365,50.883559811382064,"NaN"],"type":"Point"},"type":"Feature"}},{"id":"10706","label":"Black Carbon 10706 - Unknown device - procedure, 44R702 - Gent (G.Carlierlaan)","uom":"ug/m3","station":{"properties":{"id":1715,"label":"44R702 - Gent (G.Carlierlaan)"},"geometry":{"coordinates":[3.734971479685308,51.04068941942729,"NaN"],"type":"Point"},"type":"Feature"}},{"id":"10742","label":"Black Carbon 10742 - THIS 42C - procedure, 42R803 - Antwerpen (Park Spoor Noord)","uom":"ug/m3","station":{"properties":{"id":1720,"label":"42R803 - Antwerpen (Park Spoor Noord)"},"geometry":{"coordinates":[4.428454177535566,51.22862981306352,"NaN"],"type":"Point"},"type":"Feature"}},{"id":"10747","label":"Black Carbon 10747 - THIS 42C - procedure, 42R817 - Antwerpen (Groenenborgerlaan)","uom":"ug/m3","station":{"properties":{"id":1721,"label":"42R817 - Antwerpen (Groenenborgerlaan)"},"geometry":{"coordinates":[4.417948637777734,51.17713088779353,"NaN"],"type":"Point"},"type":"Feature"}},{"id":"10764","label":"Black Carbon 10764 - Unknown device - procedure, 42R804 - Antwerpen (Ring)","uom":"ug/m3","station":{"properties":{"id":1723,"label":"42R804 - Antwerpen (Ring)"},"geometry":{"coordinates":[4.441947090848594,51.2063039486545,"NaN"],"type":"Point"},"type":"Feature"}},{"id":"6151","label":"Black Carbon 6151 - Unknown device - procedure, 40AL01 - LINKEROEVER","uom":"ug/m3","station":{"properties":{"id":1030,"label":"40AL01 - LINKEROEVER"},"geometry":{"coordinates":[4.3852236844547186,51.23619419990224,"NaN"],"type":"Point"},"type":"Feature"}},{"id":"6343","label":"Black Carbon 6343 - Black Carbon - procedure, 40SZ01 - STEENOKKERZEEL","uom":"ug/m3","station":{"properties":{"id":1073,"label":"40SZ01 - STEENOKKERZEEL"},"geometry":{"coordinates":[4.504183323312318,50.9145761371667,"NaN"],"type":"Point"},"type":"Feature"}},{"id":"6569","label":"Black Carbon 6569 - Aethalometer - procedure, 41R001 - Molenbeek-Saint-Jean","uom":"ug/m3","station":{"properties":{"id":1118,"label":"41R001 - Molenbeek-Saint-Jean"},"geometry":{"coordinates":[4.3338197077120135,50.84966548806783,"NaN"],"type":"Point"},"type":"Feature"}},{"id":"6609","label":"Black Carbon 6609 - Aethalometer - procedure, 41R002 - Ixelles","uom":"ug/m3","station":{"properties":{"id":1119,"label":"41R002 - Ixelles"},"geometry":{"coordinates":[4.384718841699582,50.82512787295696,"NaN"],"type":"Point"},"type":"Feature"}},{"id":"6633","label":"Black Carbon 6633 - Aethalometer - procedure, 41WOL1 - WOL.ST.L.","uom":"ug/m3","station":{"properties":{"id":1124,"label":"41WOL1 - WOL.ST.L."},"geometry":{"coordinates":[4.425703684244229,50.85657823741623,"NaN"],"type":"Point"},"type":"Feature"}},{"id":"6687","label":"Black Carbon 6687 - Unknown device - procedure, 42M802 - ANTWERPEN","uom":"ug/m3","station":{"properties":{"id":1127,"label":"42M802 - ANTWERPEN"},"geometry":{"coordinates":[4.424399006935331,51.26098970746686,"NaN"],"type":"Point"},"type":"Feature"}},{"id":"6800","label":"Black Carbon 6800 - TEI MAAP - BLACK CARBON - procedure, 42R815 - ZWIJNDRECHT","uom":"ug/m3","station":{"properties":{"id":1153,"label":"42R815 - ZWIJNDRECHT"},"geometry":{"coordinates":[4.332206432310319,51.214698816375346,"NaN"],"type":"Point"},"type":"Feature"}},{"id":"6840","label":"Black Carbon 6840 - Unknown device - procedure, 40R833 - STABROEK","uom":"ug/m3","station":{"properties":{"id":1161,"label":"40R833 - STABROEK"},"geometry":{"coordinates":[4.3622605932003715,51.327658871495316,"NaN"],"type":"Point"},"type":"Feature"}},{"id":"6928","label":"Black Carbon 6928 - Aethalometer - procedure, 43N085 - VIELSALM","uom":"ug/m3","station":{"properties":{"id":1180,"label":"43N085 - VIELSALM"},"geometry":{"coordinates":[6.00173628853782,50.30320782818842,"NaN"],"type":"Point"},"type":"Feature"}},{"id":"6988","label":"Black Carbon 6988 - Aethalometer - procedure, 43R221 - LIEGE","uom":"ug/m3","station":{"properties":{"id":1190,"label":"43R221 - LIEGE"},"geometry":{"coordinates":[5.6278352908526506,50.65844441678642,"NaN"],"type":"Point"},"type":"Feature"}},{"id":"7029","label":"Black Carbon 7029 - Unknown device - procedure, 44M705 - ROESELARE","uom":"ug/m3","station":{"properties":{"id":1198,"label":"44M705 - ROESELARE"},"geometry":{"coordinates":[3.152401590470015,50.945359241350246,"NaN"],"type":"Point"},"type":"Feature"}},{"id":"7155","label":"Black Carbon 7155 - Aethalometer - procedure, 45R512 - MARCHIENNE","uom":"ug/m3","station":{"properties":{"id":1221,"label":"45R512 - MARCHIENNE"},"geometry":{"coordinates":[4.3958971170392385,50.4078101994165,"NaN"],"type":"Point"},"type":"Feature"}},{"id":"6612","label":"Carbon Dioxide 6612 - This model 41H - procedure, 41R002 - Ixelles","uom":"ppm","station":{"properties":{"id":1119,"label":"41R002 - Ixelles"},"geometry":{"coordinates":[4.384718841699582,50.82512787295696,"NaN"],"type":"Point"},"type":"Feature"}},{"id":"6619","label":"Carbon Dioxide 6619 - This model 41H - procedure, 41R012 - UCCLE","uom":"ppm","station":{"properties":{"id":1122,"label":"41R012 - UCCLE"},"geometry":{"coordinates":[4.358538856351676,50.79663163849774,"NaN"],"type":"Point"},"type":"Feature"}},{"id":"6636","label":"Carbon Dioxide 6636 - This 41H - procedure, 41WOL1 - WOL.ST.L.","uom":"ppm","station":{"properties":{"id":1124,"label":"41WOL1 - WOL.ST.L."},"geometry":{"coordinates":[4.425703684244229,50.85657823741623,"NaN"],"type":"Point"},"type":"Feature"}},{"id":"10616","label":"Carbon Monoxide 10616 - Unknown device - procedure, 41B008 - Brussel (Beliardstraat)","uom":"mg/m3","station":{"properties":{"id":1711,"label":"41B008 - Brussel (Beliardstraat)"},"geometry":{"coordinates":[4.376149069749029,50.840788566499974,"NaN"],"type":"Point"},"type":"Feature"}},{"id":"10739","label":"Carbon Monoxide 10739 - Unknown device - procedure, 42R802 - BORGERHOUT","uom":"ug/m3","station":{"properties":{"id":1148,"label":"42R802 - BORGERHOUT"},"geometry":{"coordinates":[4.43179223079244,51.20951873158326,"NaN"],"type":"Point"},"type":"Feature"}},{"id":"6500","label":"Carbon Monoxide 6500 - CO-11M (Environnement) - procedure, 41B001 - Arts-Loi","uom":"mg/m3","station":{"properties":{"id":1109,"label":"41B001 - Arts-Loi"},"geometry":{"coordinates":[4.368681223461491,50.84571510092824,"NaN"],"type":"Point"},"type":"Feature"}},{"id":"6506","label":"Carbon Monoxide 6506 - CO-11M (Environnement); buiten werking tussen 20060301 tem 20080317 - procedure, 41B004 - Bruxelles (Sainte-Catherine)","uom":"mg/m3","station":{"properties":{"id":1110,"label":"41B004 - Bruxelles (Sainte-Catherine)"},"geometry":{"coordinates":[4.348587474273882,50.85081053679465,"NaN"],"type":"Point"},"type":"Feature"}},{"id":"6514","label":"Carbon Monoxide 6514 - CO-11MGFC-IR (Environnement) - procedure, 41B006 - Bruxelles (Parlement UE)","uom":"mg/m3","station":{"properties":{"id":1112,"label":"41B006 - Bruxelles (Parlement UE)"},"geometry":{"coordinates":[4.374388283352736,50.83863118763396,"NaN"],"type":"Point"},"type":"Feature"}},{"id":"6558","label":"Carbon Monoxide 6558 - CO-11M (Environnement)-GFC-IR - procedure, 41N043 - HAREN","uom":"mg/m3","station":{"properties":{"id":1117,"label":"41N043 - HAREN"},"geometry":{"coordinates":[4.3829632518023365,50.883559811382064,"NaN"],"type":"Point"},"type":"Feature"}},{"id":"6571","label":"Carbon Monoxide 6571 - CO-10M (Environnement) tot 14/2/2001 vanaf dan CO-11M (Environnement) - procedure, 41R001 - Molenbeek-Saint-Jean","uom":"mg/m3","station":{"properties":{"id":1118,"label":"41R001 - Molenbeek-Saint-Jean"},"geometry":{"coordinates":[4.3338197077120135,50.84966548806783,"NaN"],"type":"Point"},"type":"Feature"}},{"id":"6611","label":"Carbon Monoxide 6611 - ENVIRONNEMEMT CO-11M sedert 9802 - procedure, 41R002 - Ixelles","uom":"mg/m3","station":{"properties":{"id":1119,"label":"41R002 - Ixelles"},"geometry":{"coordinates":[4.384718841699582,50.82512787295696,"NaN"],"type":"Point"},"type":"Feature"}},{"id":"6635","label":"Carbon Monoxide 6635 - ENVIRONNEMEMT CO-11M sedert 9802 - procedure, 41WOL1 - WOL.ST.L.","uom":"mg/m3","station":{"properties":{"id":1124,"label":"41WOL1 - WOL.ST.L."},"geometry":{"coordinates":[4.425703684244229,50.85657823741623,"NaN"],"type":"Point"},"type":"Feature"}},{"id":"6750","label":"Carbon Monoxide 6750 - API300 - procedure, 42R010 - Sint-Stevens-Woluwe","uom":"mg/m3","station":{"properties":{"id":1143,"label":"42R010 - Sint-Stevens-Woluwe"},"geometry":{"coordinates":[4.428427283561208,50.865107883444516,"NaN"],"type":"Point"},"type":"Feature"}},{"id":"6766","label":"Carbon Monoxide 6766 - API300 - procedure, 42R020 - VILVOORDE","uom":"mg/m3","station":{"properties":{"id":1146,"label":"42R020 - VILVOORDE"},"geometry":{"coordinates":[4.436720763534066,50.94138711459375,"NaN"],"type":"Point"},"type":"Feature"}},{"id":"6773","label":"Carbon Monoxide 6773 - API300 - procedure, 42R801 - BORGERHOUT","uom":"mg/m3","station":{"properties":{"id":1147,"label":"42R801 - BORGERHOUT"},"geometry":{"coordinates":[4.431821046968842,51.20966253090978,"NaN"],"type":"Point"},"type":"Feature"}},{"id":"6887","label":"Carbon Monoxide 6887 - Unknown device - procedure, 43N060 - HAVINNES","uom":"mg/m3","station":{"properties":{"id":1173,"label":"43N060 - HAVINNES"},"geometry":{"coordinates":[3.45762442718173,50.616718401793705,"NaN"],"type":"Point"},"type":"Feature"}},{"id":"6895","label":"Carbon Monoxide 6895 - Unknown device - procedure, 43N063 - Corroy-Le-Grand","uom":"mg/m3","station":{"properties":{"id":1174,"label":"43N063 - Corroy-Le-Grand"},"geometry":{"coordinates":[4.668287682824636,50.65543910340031,"NaN"],"type":"Point"},"type":"Feature"}},{"id":"6914","label":"Carbon Monoxide 6914 - Unknown device - procedure, 43N070 - MONS","uom":"mg/m3","station":{"properties":{"id":1178,"label":"43N070 - MONS"},"geometry":{"coordinates":[3.939714325523839,50.465192156426696,"NaN"],"type":"Point"},"type":"Feature"}},{"id":"6930","label":"Carbon Monoxide 6930 - ISEO Argopol-SAM-XAIR - procedure, 43N085 - VIELSALM","uom":"mg/m3","station":{"properties":{"id":1180,"label":"43N085 - VIELSALM"},"geometry":{"coordinates":[6.00173628853782,50.30320782818842,"NaN"],"type":"Point"},"type":"Feature"}},{"id":"6965","label":"Carbon Monoxide 6965 - Unknown device - procedure, 43N132 - Habay-La-Neuve","uom":"mg/m3","station":{"properties":{"id":1185,"label":"43N132 - Habay-La-Neuve"},"geometry":{"coordinates":[5.630397740609139,49.71928118788098,"NaN"],"type":"Point"},"type":"Feature"}},{"id":"6995","label":"Carbon Monoxide 6995 - ISEO Argopol-SAM-XAIR - procedure, 43R222 - SERAING","uom":"mg/m3","station":{"properties":{"id":1191,"label":"43R222 - SERAING"},"geometry":{"coordinates":[5.570222814112576,50.61341250148177,"NaN"],"type":"Point"},"type":"Feature"}},{"id":"7003","label":"Carbon Monoxide 7003 - Unknown device - procedure, 43R223 - JEMEPPE","uom":"mg/m3","station":{"properties":{"id":1192,"label":"43R223 - JEMEPPE"},"geometry":{"coordinates":[5.516404755142993,50.62067087883907,"NaN"],"type":"Point"},"type":"Feature"}},{"id":"7071","label":"Carbon Monoxide 7071 - API300 - procedure, 44R701 - GENT","uom":"mg/m3","station":{"properties":{"id":1207,"label":"44R701 - GENT"},"geometry":{"coordinates":[3.729298171690588,51.05833171626465,"NaN"],"type":"Point"},"type":"Feature"}},{"id":"7119","label":"Carbon Monoxide 7119 - API300 - procedure, 44R750 - ZELZATE","uom":"mg/m3","station":{"properties":{"id":1214,"label":"44R750 - ZELZATE"},"geometry":{"coordinates":[3.8229200468043345,51.19606326849909,"NaN"],"type":"Point"},"type":"Feature"}},{"id":"7129","label":"Carbon Monoxide 7129 - MONITOR LABS ML9830 - procedure, 45R501 - CHARLEROI","uom":"mg/m3","station":{"properties":{"id":1217,"label":"45R501 - CHARLEROI"},"geometry":{"coordinates":[4.452171781049857,50.409311452014755,"NaN"],"type":"Point"},"type":"Feature"}},{"id":"7157","label":"Carbon Monoxide 7157 - Unknown device - procedure, 45R512 - MARCHIENNE","uom":"mg/m3","station":{"properties":{"id":1221,"label":"45R512 - MARCHIENNE"},"geometry":{"coordinates":[4.3958971170392385,50.4078101994165,"NaN"],"type":"Point"},"type":"Feature"}},{"id":"6207","label":"Elemental gaseous mercury 6207 - Kwik - procedure, 40GK11 - GENK","uom":"ng/m3","station":{"properties":{"id":1046,"label":"40GK11 - GENK"},"geometry":{"coordinates":[5.520312797653712,50.93148760350287,"NaN"],"type":"Point"},"type":"Feature"}},{"id":"6386","label":"Elemental gaseous mercury 6386 - Unknown device - procedure, 40TS12 - TESSENDERLO","uom":"ng/m3","station":{"properties":{"id":1085,"label":"40TS12 - TESSENDERLO"},"geometry":{"coordinates":[5.093861148072592,51.06335612442891,"NaN"],"type":"Point"},"type":"Feature"}},{"id":"6548","label":"Elemental gaseous mercury 6548 - metallisch kwik - procedure, 41MEU1 - MEUDON","uom":"ng/m3","station":{"properties":{"id":1116,"label":"41MEU1 - MEUDON"},"geometry":{"coordinates":[4.392717697566155,50.89510056203213,"NaN"],"type":"Point"},"type":"Feature"}},{"id":"6931","label":"Elemental gaseous mercury 6931 - metallisch kwik - procedure, 43N085 - VIELSALM","uom":"ng/m3","station":{"properties":{"id":1180,"label":"43N085 - VIELSALM"},"geometry":{"coordinates":[6.00173628853782,50.30320782818842,"NaN"],"type":"Point"},"type":"Feature"}},{"id":"6521","label":"Ethylbenzene 6521 - btx, ethylbenzeen - procedure, 41B006 - Bruxelles (Parlement UE)","uom":"ug/m3","station":{"properties":{"id":1112,"label":"41B006 - Bruxelles (Parlement UE)"},"geometry":{"coordinates":[4.374388283352736,50.83863118763396,"NaN"],"type":"Point"},"type":"Feature"}},{"id":"6518","label":"M+P-xylene 6518 - btx, som o+p-xyleen - procedure, 41B006 - Bruxelles (Parlement UE)","uom":"ug/m3","station":{"properties":{"id":1112,"label":"41B006 - Bruxelles (Parlement UE)"},"geometry":{"coordinates":[4.374388283352736,50.83863118763396,"NaN"],"type":"Point"},"type":"Feature"}},{"id":"10601","label":"Nitrogen dioxide 10601 -  - procedure, 42R802 - BORGERHOUT","uom":"ug/m3","station":{"properties":{"id":1148,"label":"42R802 - BORGERHOUT"},"geometry":{"coordinates":[4.43179223079244,51.20951873158326,"NaN"],"type":"Point"},"type":"Feature"}},{"id":"10611","label":"Nitrogen dioxide 10611 - Unknown device - procedure, 42R834 - Boom","uom":"ug/m3","station":{"properties":{"id":1710,"label":"42R834 - Boom"},"geometry":{"coordinates":[4.380103544882492,51.09200003750422,"NaN"],"type":"Point"},"type":"Feature"}},{"id":"10614","label":"Nitrogen dioxide 10614 - Unknown device - procedure, 41B008 - Brussel (Beliardstraat)","uom":"ug/m3","station":{"properties":{"id":1711,"label":"41B008 - Brussel (Beliardstraat)"},"geometry":{"coordinates":[4.376149069749029,50.840788566499974,"NaN"],"type":"Point"},"type":"Feature"}},{"id":"10689","label":"Nitrogen dioxide 10689 - Unknown device - procedure, 40R833 - STABROEK","uom":"ug/m3","station":{"properties":{"id":1161,"label":"40R833 - STABROEK"},"geometry":{"coordinates":[4.3622605932003715,51.327658871495316,"NaN"],"type":"Point"},"type":"Feature"}},{"id":"10698","label":"Nitrogen dioxide 10698 - Unknown device - procedure, 42R820 - KAPELLEN","uom":"ug/m3","station":{"properties":{"id":1155,"label":"42R820 - KAPELLEN"},"geometry":{"coordinates":[4.444810618980054,51.32041678531208,"NaN"],"type":"Point"},"type":"Feature"}},{"id":"10700","label":"Nitrogen dioxide 10700 - Unknown device - procedure, 43R221 - LIEGE","uom":"ug/m3","station":{"properties":{"id":1190,"label":"43R221 - LIEGE"},"geometry":{"coordinates":[5.6278352908526506,50.65844441678642,"NaN"],"type":"Point"},"type":"Feature"}},{"id":"10703","label":"Nitrogen dioxide 10703 - Unknown device - procedure, 44R702 - Gent (G.Carlierlaan)","uom":"ug/m3","station":{"properties":{"id":1715,"label":"44R702 - Gent (G.Carlierlaan)"},"geometry":{"coordinates":[3.734971479685308,51.04068941942729,"NaN"],"type":"Point"},"type":"Feature"}},{"id":"10708","label":"Nitrogen dioxide 10708 - Unknown device - procedure, 47E814 - Ham","uom":"ug/m3","station":{"properties":{"id":1716,"label":"47E814 - Ham"},"geometry":{"coordinates":[5.129718074812022,51.082187223513884,"NaN"],"type":"Point"},"type":"Feature"}},{"id":"10741","label":"Nitrogen dioxide 10741 -  - procedure, 42R803 - Antwerpen (Park Spoor Noord)","uom":"ug/m3","station":{"properties":{"id":1720,"label":"42R803 - Antwerpen (Park Spoor Noord)"},"geometry":{"coordinates":[4.428454177535566,51.22862981306352,"NaN"],"type":"Point"},"type":"Feature"}},{"id":"10746","label":"Nitrogen dioxide 10746 - THIS 42C - procedure, 42R817 - Antwerpen (Groenenborgerlaan)","uom":"ug/m3","station":{"properties":{"id":1721,"label":"42R817 - Antwerpen (Groenenborgerlaan)"},"geometry":{"coordinates":[4.417948637777734,51.17713088779353,"NaN"],"type":"Point"},"type":"Feature"}},{"id":"10751","label":"Nitrogen dioxide 10751 - THIS 42C - procedure, 47E704 - Wachtebeke","uom":"ug/m3","station":{"properties":{"id":1722,"label":"47E704 - Wachtebeke"},"geometry":{"coordinates":[3.8699281727522092,51.176100104067196,"NaN"],"type":"Point"},"type":"Feature"}},{"id":"10761","label":"Nitrogen dioxide 10761 - Unknown device - procedure, 42R804 - Antwerpen (Ring)","uom":"ug/m3","station":{"properties":{"id":1723,"label":"42R804 - Antwerpen (Ring)"},"geometry":{"coordinates":[4.441947090848594,51.2063039486545,"NaN"],"type":"Point"},"type":"Feature"}},{"id":"10928","label":"Nitrogen dioxide 10928 - Unknown device - procedure, 42R805 - Antwerpen (Belgiëlei)","uom":"ug/m3","station":{"properties":{"id":1713,"label":"42R805 - Antwerpen (Belgiëlei)"},"geometry":{"coordinates":[4.421559251065274,51.208229471816935,"NaN"],"type":"Point"},"type":"Feature"}},{"id":"6200","label":"Nitrogen dioxide 6200 - TEI42C - procedure, 40GK09 - GENK","uom":"ug/m3","station":{"properties":{"id":1045,"label":"40GK09 - GENK"},"geometry":{"coordinates":[5.492788429595824,50.934631219113264,"NaN"],"type":"Point"},"type":"Feature"}},{"id":"6217","label":"Nitrogen dioxide 6217 - TEI 42C - procedure, 40HB23 - HOBOKEN","uom":"ug/m3","station":{"properties":{"id":1048,"label":"40HB23 - HOBOKEN"},"geometry":{"coordinates":[4.341005064562843,51.1702980384352,"NaN"],"type":"Point"},"type":"Feature"}},{"id":"6272","label":"Nitrogen dioxide 6272 - TEI 42C - procedure, 40LD01 - LAAKDAL","uom":"ug/m3","station":{"properties":{"id":1058,"label":"40LD01 - LAAKDAL"},"geometry":{"coordinates":[5.0048643935877655,51.10997612046681,"NaN"],"type":"Point"},"type":"Feature"}},{"id":"6281","label":"Nitrogen dioxide 6281 - TEI 42C - procedure, 40LD02 - LAAKDAL","uom":"ug/m3","station":{"properties":{"id":1059,"label":"40LD02 - LAAKDAL"},"geometry":{"coordinates":[5.021545977609836,51.12038413709927,"NaN"],"type":"Point"},"type":"Feature"}},{"id":"6348","label":"Nitrogen dioxide 6348 - This 42C - procedure, 40SZ01 - STEENOKKERZEEL","uom":"ug/m3","station":{"properties":{"id":1073,"label":"40SZ01 - STEENOKKERZEEL"},"geometry":{"coordinates":[4.504183323312318,50.9145761371667,"NaN"],"type":"Point"},"type":"Feature"}},{"id":"6361","label":"Nitrogen dioxide 6361 - Unknown device - procedure, 40SZ02 - STEENOKKERZ","uom":"ug/m3","station":{"properties":{"id":1074,"label":"40SZ02 - STEENOKKERZ"},"geometry":{"coordinates":[4.512184346190292,50.913020423024705,"NaN"],"type":"Point"},"type":"Feature"}},{"id":"6504","label":"Nitrogen dioxide 6504 - vanaf 970317 AC-31M (Environneme - procedure, 41B001 - Arts-Loi","uom":"ug/m3","station":{"properties":{"id":1109,"label":"41B001 - Arts-Loi"},"geometry":{"coordinates":[4.368681223461491,50.84571510092824,"NaN"],"type":"Point"},"type":"Feature"}},{"id":"6508","label":"Nitrogen dioxide 6508 - AC-31M (Environnement); buiten werking tussen 20060301 tem 20080317 - procedure, 41B004 - Bruxelles (Sainte-Catherine)","uom":"ug/m3","station":{"properties":{"id":1110,"label":"41B004 - Bruxelles (Sainte-Catherine)"},"geometry":{"coordinates":[4.348587474273882,50.85081053679465,"NaN"],"type":"Point"},"type":"Feature"}},{"id":"6516","label":"Nitrogen dioxide 6516 - AC-31M (Environnement) - procedure, 41B006 - Bruxelles (Parlement UE)","uom":"ug/m3","station":{"properties":{"id":1112,"label":"41B006 - Bruxelles (Parlement UE)"},"geometry":{"coordinates":[4.374388283352736,50.83863118763396,"NaN"],"type":"Point"},"type":"Feature"}},{"id":"6528","label":"Nitrogen dioxide 6528 - AC-31M (Environnement) - procedure, 41B011 - Berchem-Sainte-Agathe","uom":"ug/m3","station":{"properties":{"id":1113,"label":"41B011 - Berchem-Sainte-Agathe"},"geometry":{"coordinates":[4.288336366305903,50.85803059327673,"NaN"],"type":"Point"},"type":"Feature"}},{"id":"6551","label":"Nitrogen dioxide 6551 - Unknown device - procedure, 41MEU1 - MEUDON","uom":"ug/m3","station":{"properties":{"id":1116,"label":"41MEU1 - MEUDON"},"geometry":{"coordinates":[4.392717697566155,50.89510056203213,"NaN"],"type":"Point"},"type":"Feature"}},{"id":"6561","label":"Nitrogen dioxide 6561 - ENVIRONNEMENT AC-31M - procedure, 41N043 - HAREN","uom":"ug/m3","station":{"properties":{"id":1117,"label":"41N043 - HAREN"},"geometry":{"coordinates":[4.3829632518023365,50.883559811382064,"NaN"],"type":"Point"},"type":"Feature"}},{"id":"6574","label":"Nitrogen dioxide 6574 - MELOY NA + AC-31M (Environnement) - procedure, 41R001 - Molenbeek-Saint-Jean","uom":"ug/m3","station":{"properties":{"id":1118,"label":"41R001 - Molenbeek-Saint-Jean"},"geometry":{"coordinates":[4.3338197077120135,50.84966548806783,"NaN"],"type":"Point"},"type":"Feature"}},{"id":"6615","label":"Nitrogen dioxide 6615 - AC-31M (Environnement) sedert 96 - procedure, 41R002 - Ixelles","uom":"ug/m3","station":{"properties":{"id":1119,"label":"41R002 - Ixelles"},"geometry":{"coordinates":[4.384718841699582,50.82512787295696,"NaN"],"type":"Point"},"type":"Feature"}},{"id":"6622","label":"Nitrogen dioxide 6622 - AC-31M (Environnement) sedert 97 - procedure, 41R012 - UCCLE","uom":"ug/m3","station":{"properties":{"id":1122,"label":"41R012 - UCCLE"},"geometry":{"coordinates":[4.358538856351676,50.79663163849774,"NaN"],"type":"Point"},"type":"Feature"}},{"id":"6639","label":"Nitrogen dioxide 6639 - AC-31M (Environnement) sedert 97 - procedure, 41WOL1 - WOL.ST.L.","uom":"ug/m3","station":{"properties":{"id":1124,"label":"41WOL1 - WOL.ST.L."},"geometry":{"coordinates":[4.425703684244229,50.85657823741623,"NaN"],"type":"Point"},"type":"Feature"}},{"id":"6690","label":"Nitrogen dioxide 6690 - Env. AC32M - procedure, 42M802 - ANTWERPEN","uom":"ug/m3","station":{"properties":{"id":1127,"label":"42M802 - ANTWERPEN"},"geometry":{"coordinates":[4.424399006935331,51.26098970746686,"NaN"],"type":"Point"},"type":"Feature"}},{"id":"6702","label":"Nitrogen dioxide 6702 - THIS 42C - procedure, 42N016 - DESSEL","uom":"ug/m3","station":{"properties":{"id":1132,"label":"42N016 - DESSEL"},"geometry":{"coordinates":[5.163978846331755,51.23365220616215,"NaN"],"type":"Point"},"type":"Feature"}},{"id":"6710","label":"Nitrogen dioxide 6710 - TEI42C - procedure, 42N027 - BREE","uom":"ug/m3","station":{"properties":{"id":1136,"label":"42N027 - BREE"},"geometry":{"coordinates":[5.606659219704467,51.13371669601281,"NaN"],"type":"Point"},"type":"Feature"}},{"id":"6714","label":"Nitrogen dioxide 6714 - Env. AC32M - procedure, 42N035 - AARSCHOT","uom":"ug/m3","station":{"properties":{"id":1137,"label":"42N035 - AARSCHOT"},"geometry":{"coordinates":[4.837618015698611,50.97754137811404,"NaN"],"type":"Point"},"type":"Feature"}},{"id":"6718","label":"Nitrogen dioxide 6718 - Env. AC32M - procedure, 42N040 - Sint-Pieters-Leeuw (3m)","uom":"ug/m3","station":{"properties":{"id":1138,"label":"42N040 - Sint-Pieters-Leeuw (3m)"},"geometry":{"coordinates":[4.225194246746713,50.76813751325514,"NaN"],"type":"Point"},"type":"Feature"}},{"id":"6726","label":"Nitrogen dioxide 6726 - Env. AC32M - procedure, 42N045 - HASSELT","uom":"ug/m3","station":{"properties":{"id":1140,"label":"42N045 - HASSELT"},"geometry":{"coordinates":[5.368378532294256,50.93971186506705,"NaN"],"type":"Point"},"type":"Feature"}},{"id":"6743","label":"Nitrogen dioxide 6743 - Env. AC32M - procedure, 42N046 - GELLIK","uom":"ug/m3","station":{"properties":{"id":1141,"label":"42N046 - GELLIK"},"geometry":{"coordinates":[5.618873985239506,50.88229882582781,"NaN"],"type":"Point"},"type":"Feature"}},{"id":"6747","label":"Nitrogen dioxide 6747 - Env. AC32M - procedure, 42N054 - WALSHOUTEM","uom":"ug/m3","station":{"properties":{"id":1142,"label":"42N054 - WALSHOUTEM"},"geometry":{"coordinates":[5.103158609453954,50.7117060937334,"NaN"],"type":"Point"},"type":"Feature"}},{"id":"6753","label":"Nitrogen dioxide 6753 - THIS 42C - procedure, 42R010 - Sint-Stevens-Woluwe","uom":"ug/m3","station":{"properties":{"id":1143,"label":"42R010 - Sint-Stevens-Woluwe"},"geometry":{"coordinates":[4.428427283561208,50.865107883444516,"NaN"],"type":"Point"},"type":"Feature"}},{"id":"6769","label":"Nitrogen dioxide 6769 - THIS 42C - procedure, 42R020 - VILVOORDE","uom":"ug/m3","station":{"properties":{"id":1146,"label":"42R020 - VILVOORDE"},"geometry":{"coordinates":[4.436720763534066,50.94138711459375,"NaN"],"type":"Point"},"type":"Feature"}},{"id":"6776","label":"Nitrogen dioxide 6776 - THIS 42C - procedure, 42R801 - BORGERHOUT","uom":"ug/m3","station":{"properties":{"id":1147,"label":"42R801 - BORGERHOUT"},"geometry":{"coordinates":[4.431821046968842,51.20966253090978,"NaN"],"type":"Point"},"type":"Feature"}},{"id":"6792","label":"Nitrogen dioxide 6792 - TEI 42C - procedure, 42R811 - SCHOTEN","uom":"ug/m3","station":{"properties":{"id":1149,"label":"42R811 - SCHOTEN"},"geometry":{"coordinates":[4.49136202793544,51.25210341184452,"NaN"],"type":"Point"},"type":"Feature"}},{"id":"6803","label":"Nitrogen dioxide 6803 - Env. AC32M - procedure, 42R815 - ZWIJNDRECHT","uom":"ug/m3","station":{"properties":{"id":1153,"label":"42R815 - ZWIJNDRECHT"},"geometry":{"coordinates":[4.332206432310319,51.214698816375346,"NaN"],"type":"Point"},"type":"Feature"}},{"id":"6814","label":"Nitrogen dioxide 6814 - This 42C - procedure, 42R821 - BEVEREN","uom":"ug/m3","station":{"properties":{"id":1156,"label":"42R821 - BEVEREN"},"geometry":{"coordinates":[4.250314665917323,51.215499519245505,"NaN"],"type":"Point"},"type":"Feature"}},{"id":"6817","label":"Nitrogen dioxide 6817 - This 42C - procedure, 42R822 - ANTWERPEN","uom":"ug/m3","station":{"properties":{"id":1157,"label":"42R822 - ANTWERPEN"},"geometry":{"coordinates":[4.3412799924646635,51.26428978424844,"NaN"],"type":"Point"},"type":"Feature"}},{"id":"6826","label":"Nitrogen dioxide 6826 - This 42C - procedure, 42R830 - DOEL","uom":"ug/m3","station":{"properties":{"id":1158,"label":"42R830 - DOEL"},"geometry":{"coordinates":[4.262633729582559,51.31822863028182,"NaN"],"type":"Point"},"type":"Feature"}},{"id":"6830","label":"Nitrogen dioxide 6830 - AC32M Environnement - procedure, 42R831 - BERENDRECHT","uom":"ug/m3","station":{"properties":{"id":1159,"label":"42R831 - BERENDRECHT"},"geometry":{"coordinates":[4.339709947119865,51.348795291931914,"NaN"],"type":"Point"},"type":"Feature"}},{"id":"6852","label":"Nitrogen dioxide 6852 - TEI 42C - procedure, 42R841 - MECHELEN","uom":"ug/m3","station":{"properties":{"id":1162,"label":"42R841 - MECHELEN"},"geometry":{"coordinates":[4.469321036547794,51.002525968385235,"NaN"],"type":"Point"},"type":"Feature"}},{"id":"6858","label":"Nitrogen dioxide 6858 - Unknown device - procedure, 42R891 - ANTWERPEN","uom":"ug/m3","station":{"properties":{"id":1163,"label":"42R891 - ANTWERPEN"},"geometry":{"coordinates":[4.385359826049379,51.25580664431439,"NaN"],"type":"Point"},"type":"Feature"}},{"id":"6862","label":"Nitrogen dioxide 6862 - Unknown device - procedure, 42R892 - KALLO","uom":"ug/m3","station":{"properties":{"id":1164,"label":"42R892 - KALLO"},"geometry":{"coordinates":[4.278889976505925,51.263036822814726,"NaN"],"type":"Point"},"type":"Feature"}},{"id":"6866","label":"Nitrogen dioxide 6866 - Unknown device - procedure, 42R893 - ANTWERPEN","uom":"ug/m3","station":{"properties":{"id":1165,"label":"42R893 - ANTWERPEN"},"geometry":{"coordinates":[4.3857706195110095,51.28137805575266,"NaN"],"type":"Point"},"type":"Feature"}},{"id":"6870","label":"Nitrogen dioxide 6870 - Unknown device - procedure, 42R894 - ANTWERPEN","uom":"ug/m3","station":{"properties":{"id":1166,"label":"42R894 - ANTWERPEN"},"geometry":{"coordinates":[4.34949581364629,51.28349913251708,"NaN"],"type":"Point"},"type":"Feature"}},{"id":"6875","label":"Nitrogen dioxide 6875 - Unknown device - procedure, 42R897 - ANTWERPEN","uom":"ug/m3","station":{"properties":{"id":1168,"label":"42R897 - ANTWERPEN"},"geometry":{"coordinates":[4.342104511322137,51.250106498306934,"NaN"],"type":"Point"},"type":"Feature"}},{"id":"6890","label":"Nitrogen dioxide 6890 - ENVIRONNEMENT - procedure, 43N060 - HAVINNES","uom":"ug/m3","station":{"properties":{"id":1173,"label":"43N060 - HAVINNES"},"geometry":{"coordinates":[3.45762442718173,50.616718401793705,"NaN"],"type":"Point"},"type":"Feature"}},{"id":"6898","label":"Nitrogen dioxide 6898 - ENVIRONNEMENT - procedure, 43N063 - Corroy-Le-Grand","uom":"ug/m3","station":{"properties":{"id":1174,"label":"43N063 - Corroy-Le-Grand"},"geometry":{"coordinates":[4.668287682824636,50.65543910340031,"NaN"],"type":"Point"},"type":"Feature"}},{"id":"6906","label":"Nitrogen dioxide 6906 - ENVIRONNEMENT - procedure, 43N066 - EUPEN","uom":"ug/m3","station":{"properties":{"id":1176,"label":"43N066 - EUPEN"},"geometry":{"coordinates":[6.002328686936958,50.628860259817635,"NaN"],"type":"Point"},"type":"Feature"}},{"id":"6917","label":"Nitrogen dioxide 6917 - API 200A 1848 - procedure, 43N070 - MONS","uom":"ug/m3","station":{"properties":{"id":1178,"label":"43N070 - MONS"},"geometry":{"coordinates":[3.939714325523839,50.465192156426696,"NaN"],"type":"Point"},"type":"Feature"}},{"id":"6924","label":"Nitrogen dioxide 6924 - ENVIRONNEMENT - procedure, 43N073 - VEZIN","uom":"ug/m3","station":{"properties":{"id":1179,"label":"43N073 - VEZIN"},"geometry":{"coordinates":[4.988422954092517,50.50271634104244,"NaN"],"type":"Point"},"type":"Feature"}},{"id":"6934","label":"Nitrogen dioxide 6934 - API 200A 1849 - procedure, 43N085 - VIELSALM","uom":"ug/m3","station":{"properties":{"id":1180,"label":"43N085 - VIELSALM"},"geometry":{"coordinates":[6.00173628853782,50.30320782818842,"NaN"],"type":"Point"},"type":"Feature"}},{"id":"6941","label":"Nitrogen dioxide 6941 - ENVIRONNEMENT - procedure, 43N093 - SINSIN","uom":"ug/m3","station":{"properties":{"id":1181,"label":"43N093 - SINSIN"},"geometry":{"coordinates":[5.235168654774102,50.27447751094948,"NaN"],"type":"Point"},"type":"Feature"}},{"id":"6948","label":"Nitrogen dioxide 6948 - ENVIRONNEMENT - procedure, 43N100 - DOURBES","uom":"ug/m3","station":{"properties":{"id":1182,"label":"43N100 - DOURBES"},"geometry":{"coordinates":[4.594762762155874,50.09568343419087,"NaN"],"type":"Point"},"type":"Feature"}},{"id":"6955","label":"Nitrogen dioxide 6955 - ENVIRONNEMENT - procedure, 43N113 - SAINT-ODE","uom":"ug/m3","station":{"properties":{"id":1183,"label":"43N113 - SAINT-ODE"},"geometry":{"coordinates":[5.593016914066438,50.0270290173477,"NaN"],"type":"Point"},"type":"Feature"}},{"id":"6961","label":"Nitrogen dioxide 6961 - ENVIRONNEMENT - procedure, 43N121 - OFFAGNE","uom":"ug/m3","station":{"properties":{"id":1184,"label":"43N121 - OFFAGNE"},"geometry":{"coordinates":[5.202387466800059,49.87712849132921,"NaN"],"type":"Point"},"type":"Feature"}},{"id":"6968","label":"Nitrogen dioxide 6968 - Unknown device - procedure, 43N132 - Habay-La-Neuve","uom":"ug/m3","station":{"properties":{"id":1185,"label":"43N132 - Habay-La-Neuve"},"geometry":{"coordinates":[5.630397740609139,49.71928118788098,"NaN"],"type":"Point"},"type":"Feature"}},{"id":"6998","label":"Nitrogen dioxide 6998 - ISEO Argopol-SAM-XAIR - procedure, 43R222 - SERAING","uom":"ug/m3","station":{"properties":{"id":1191,"label":"43R222 - SERAING"},"geometry":{"coordinates":[5.570222814112576,50.61341250148177,"NaN"],"type":"Point"},"type":"Feature"}},{"id":"7006","label":"Nitrogen dioxide 7006 - ML9841B MONITOR LABS - procedure, 43R223 - JEMEPPE","uom":"ug/m3","station":{"properties":{"id":1192,"label":"43R223 - JEMEPPE"},"geometry":{"coordinates":[5.516404755142993,50.62067087883907,"NaN"],"type":"Point"},"type":"Feature"}},{"id":"7017","label":"Nitrogen dioxide 7017 - ML9841B MONITOR LABS - procedure, 43R240 - ENGIS","uom":"ug/m3","station":{"properties":{"id":1195,"label":"43R240 - ENGIS"},"geometry":{"coordinates":[5.397446050127326,50.583614347368496,"NaN"],"type":"Point"},"type":"Feature"}},{"id":"7026","label":"Nitrogen dioxide 7026 - This 42C - procedure, 44M702 - ERTVELDE","uom":"ug/m3","station":{"properties":{"id":1196,"label":"44M702 - ERTVELDE"},"geometry":{"coordinates":[3.7621373591006364,51.166023221149736,"NaN"],"type":"Point"},"type":"Feature"}},{"id":"7032","label":"Nitrogen dioxide 7032 - Env. AC32M - procedure, 44M705 - ROESELARE","uom":"ug/m3","station":{"properties":{"id":1198,"label":"44M705 - ROESELARE"},"geometry":{"coordinates":[3.152401590470015,50.945359241350246,"NaN"],"type":"Point"},"type":"Feature"}},{"id":"7040","label":"Nitrogen dioxide 7040 - THIS 42C - procedure, 44N012 - MOERKERKE","uom":"ug/m3","station":{"properties":{"id":1200,"label":"44N012 - MOERKERKE"},"geometry":{"coordinates":[3.3625358887016037,51.25457362243622,"NaN"],"type":"Point"},"type":"Feature"}},{"id":"7047","label":"Nitrogen dioxide 7047 - THIS 42C - procedure, 44N029 - HOUTEM","uom":"ug/m3","station":{"properties":{"id":1202,"label":"44N029 - HOUTEM"},"geometry":{"coordinates":[2.5823227814897467,51.016280111137796,"NaN"],"type":"Point"},"type":"Feature"}},{"id":"7063","label":"Nitrogen dioxide 7063 - This 42i - procedure, 44N051 - IDEGEM","uom":"ug/m3","station":{"properties":{"id":1205,"label":"44N051 - IDEGEM"},"geometry":{"coordinates":[3.9302932376017643,50.79891560368892,"NaN"],"type":"Point"},"type":"Feature"}},{"id":"7067","label":"Nitrogen dioxide 7067 - This 42C - procedure, 44N052 - ZWEVEGEM","uom":"ug/m3","station":{"properties":{"id":1206,"label":"44N052 - ZWEVEGEM"},"geometry":{"coordinates":[3.322494319037278,50.81487386991962,"NaN"],"type":"Point"},"type":"Feature"}},{"id":"7074","label":"Nitrogen dioxide 7074 - THIS 42C - procedure, 44R701 - GENT","uom":"ug/m3","station":{"properties":{"id":1207,"label":"44R701 - GENT"},"geometry":{"coordinates":[3.729298171690588,51.05833171626465,"NaN"],"type":"Point"},"type":"Feature"}},{"id":"7090","label":"Nitrogen dioxide 7090 - Env. AC32M - procedure, 44R710 - DESTELBERGE","uom":"ug/m3","station":{"properties":{"id":1208,"label":"44R710 - DESTELBERGE"},"geometry":{"coordinates":[3.7752623896453614,51.06127769765444,"NaN"],"type":"Point"},"type":"Feature"}},{"id":"7097","label":"Nitrogen dioxide 7097 - This 42C - procedure, 44R721 - WONDELGEM","uom":"ug/m3","station":{"properties":{"id":1210,"label":"44R721 - WONDELGEM"},"geometry":{"coordinates":[3.7161193706960214,51.08895772366413,"NaN"],"type":"Point"},"type":"Feature"}},{"id":"7105","label":"Nitrogen dioxide 7105 - THIS 42C - procedure, 44R731 - EVERGEM","uom":"ug/m3","station":{"properties":{"id":1212,"label":"44R731 - EVERGEM"},"geometry":{"coordinates":[3.739504220441929,51.12469051189974,"NaN"],"type":"Point"},"type":"Feature"}},{"id":"7111","label":"Nitrogen dioxide 7111 - THIS 42C - procedure, 44R740 - Sint-Kruiswinkel","uom":"ug/m3","station":{"properties":{"id":1213,"label":"44R740 - Sint-Kruiswinkel"},"geometry":{"coordinates":[3.8087354304127436,51.15013609000057,"NaN"],"type":"Point"},"type":"Feature"}},{"id":"7122","label":"Nitrogen dioxide 7122 - This 42C - procedure, 44R750 - ZELZATE","uom":"ug/m3","station":{"properties":{"id":1214,"label":"44R750 - ZELZATE"},"geometry":{"coordinates":[3.8229200468043345,51.19606326849909,"NaN"],"type":"Point"},"type":"Feature"}},{"id":"7132","label":"Nitrogen dioxide 7132 - MELOY NA - procedure, 45R501 - CHARLEROI","uom":"ug/m3","station":{"properties":{"id":1217,"label":"45R501 - CHARLEROI"},"geometry":{"coordinates":[4.452171781049857,50.409311452014755,"NaN"],"type":"Point"},"type":"Feature"}},{"id":"7141","label":"Nitrogen dioxide 7141 - Unknown device - procedure, 45R502 - LODELINSART","uom":"ug/m3","station":{"properties":{"id":1218,"label":"45R502 - LODELINSART"},"geometry":{"coordinates":[4.458680858021719,50.428995392896034,"NaN"],"type":"Point"},"type":"Feature"}},{"id":"7160","label":"Nitrogen dioxide 7160 - ML9841B MONITOR LABS - procedure, 45R512 - MARCHIENNE","uom":"ug/m3","station":{"properties":{"id":1221,"label":"45R512 - MARCHIENNE"},"geometry":{"coordinates":[4.3958971170392385,50.4078101994165,"NaN"],"type":"Point"},"type":"Feature"}},{"id":"7177","label":"Nitrogen dioxide 7177 - Unknown device - procedure, 47E007 - Sint-Pieters-Leeuw","uom":"ug/m3","station":{"properties":{"id":1231,"label":"47E007 - Sint-Pieters-Leeuw"},"geometry":{"coordinates":[4.252628452872857,50.79529862668792,"NaN"],"type":"Point"},"type":"Feature"}},{"id":"7180","label":"Nitrogen dioxide 7180 - Unknown device - procedure, 47E008 - Grimbergen","uom":"ug/m3","station":{"properties":{"id":1232,"label":"47E008 - Grimbergen"},"geometry":{"coordinates":[4.395920014137027,50.92609511609174,"NaN"],"type":"Point"},"type":"Feature"}},{"id":"7183","label":"Nitrogen dioxide 7183 - Unknown device - procedure, 47E009 - Zemst","uom":"ug/m3","station":{"properties":{"id":1233,"label":"47E009 - Zemst"},"geometry":{"coordinates":[4.435416984927745,50.95491668793431,"NaN"],"type":"Point"},"type":"Feature"}},{"id":"7186","label":"Nitrogen dioxide 7186 - Unknown device - procedure, 47E013 - Vorst","uom":"ug/m3","station":{"properties":{"id":1234,"label":"47E013 - Vorst"},"geometry":{"coordinates":[4.328384665101023,50.81170089402052,"NaN"],"type":"Point"},"type":"Feature"}},{"id":"7192","label":"Nitrogen dioxide 7192 - Unknown device - procedure, 47E702 - ELSEGEM","uom":"ug/m3","station":{"properties":{"id":1236,"label":"47E702 - ELSEGEM"},"geometry":{"coordinates":[3.5317400849507408,50.81400061768193,"NaN"],"type":"Point"},"type":"Feature"}},{"id":"7195","label":"Nitrogen dioxide 7195 - Unknown device - procedure, 47E703 - OOSTEEKLO","uom":"ug/m3","station":{"properties":{"id":1237,"label":"47E703 - OOSTEEKLO"},"geometry":{"coordinates":[3.6872957563519906,51.19031704157238,"NaN"],"type":"Point"},"type":"Feature"}},{"id":"7201","label":"Nitrogen dioxide 7201 - Unknown device - procedure, 47E714 - DUDZELE","uom":"ug/m3","station":{"properties":{"id":1239,"label":"47E714 - DUDZELE"},"geometry":{"coordinates":[3.248624062941197,51.278963303557305,"NaN"],"type":"Point"},"type":"Feature"}},{"id":"7204","label":"Nitrogen dioxide 7204 - Unknown device - procedure, 47E715 - ZUIENKERKE","uom":"ug/m3","station":{"properties":{"id":1240,"label":"47E715 - ZUIENKERKE"},"geometry":{"coordinates":[3.1749842016808905,51.24586421667566,"NaN"],"type":"Point"},"type":"Feature"}},{"id":"7207","label":"Nitrogen dioxide 7207 - Unknown device - procedure, 47E716 - MARIAKERKE","uom":"ug/m3","station":{"properties":{"id":1241,"label":"47E716 - MARIAKERKE"},"geometry":{"coordinates":[3.6828130172031246,51.06698790152142,"NaN"],"type":"Point"},"type":"Feature"}},{"id":"7210","label":"Nitrogen dioxide 7210 - Unknown device - procedure, 47E804 - Kallo","uom":"ug/m3","station":{"properties":{"id":1242,"label":"47E804 - Kallo"},"geometry":{"coordinates":[4.307160295263194,51.28139068388945,"NaN"],"type":"Point"},"type":"Feature"}},{"id":"10612","label":"Nitrogen monoxide 10612 - Unknown device - procedure, 42R834 - Boom","uom":"ug/m3","station":{"properties":{"id":1710,"label":"42R834 - Boom"},"geometry":{"coordinates":[4.380103544882492,51.09200003750422,"NaN"],"type":"Point"},"type":"Feature"}},{"id":"10613","label":"Nitrogen monoxide 10613 - Unknown device - procedure, 41B008 - Brussel (Beliardstraat)","uom":"ug/m3","station":{"properties":{"id":1711,"label":"41B008 - Brussel (Beliardstraat)"},"geometry":{"coordinates":[4.376149069749029,50.840788566499974,"NaN"],"type":"Point"},"type":"Feature"}},{"id":"10688","label":"Nitrogen monoxide 10688 - Unknown device - procedure, 40R833 - STABROEK","uom":"ug/m3","station":{"properties":{"id":1161,"label":"40R833 - STABROEK"},"geometry":{"coordinates":[4.3622605932003715,51.327658871495316,"NaN"],"type":"Point"},"type":"Feature"}},{"id":"10696","label":"Nitrogen monoxide 10696 - Unknown device - procedure, 42R802 - BORGERHOUT","uom":"ug/m3","station":{"properties":{"id":1148,"label":"42R802 - BORGERHOUT"},"geometry":{"coordinates":[4.43179223079244,51.20951873158326,"NaN"],"type":"Point"},"type":"Feature"}},{"id":"10697","label":"Nitrogen monoxide 10697 - Unknown device - procedure, 42R820 - KAPELLEN","uom":"ug/m3","station":{"properties":{"id":1155,"label":"42R820 - KAPELLEN"},"geometry":{"coordinates":[4.444810618980054,51.32041678531208,"NaN"],"type":"Point"},"type":"Feature"}},{"id":"10699","label":"Nitrogen monoxide 10699 - Unknown device - procedure, 43R221 - LIEGE","uom":"ug/m3","station":{"properties":{"id":1190,"label":"43R221 - LIEGE"},"geometry":{"coordinates":[5.6278352908526506,50.65844441678642,"NaN"],"type":"Point"},"type":"Feature"}},{"id":"10702","label":"Nitrogen monoxide 10702 - Unknown device - procedure, 44R702 - Gent (G.Carlierlaan)","uom":"ug/m3","station":{"properties":{"id":1715,"label":"44R702 - Gent (G.Carlierlaan)"},"geometry":{"coordinates":[3.734971479685308,51.04068941942729,"NaN"],"type":"Point"},"type":"Feature"}},{"id":"10707","label":"Nitrogen monoxide 10707 - Unknown device - procedure, 47E814 - Ham","uom":"ug/m3","station":{"properties":{"id":1716,"label":"47E814 - Ham"},"geometry":{"coordinates":[5.129718074812022,51.082187223513884,"NaN"],"type":"Point"},"type":"Feature"}},{"id":"10740","label":"Nitrogen monoxide 10740 -  - procedure, 42R803 - Antwerpen (Park Spoor Noord)","uom":"ug/m3","station":{"properties":{"id":1720,"label":"42R803 - Antwerpen (Park Spoor Noord)"},"geometry":{"coordinates":[4.428454177535566,51.22862981306352,"NaN"],"type":"Point"},"type":"Feature"}},{"id":"10745","label":"Nitrogen monoxide 10745 - THIS 42C - procedure, 42R817 - Antwerpen (Groenenborgerlaan)","uom":"ug/m3","station":{"properties":{"id":1721,"label":"42R817 - Antwerpen (Groenenborgerlaan)"},"geometry":{"coordinates":[4.417948637777734,51.17713088779353,"NaN"],"type":"Point"},"type":"Feature"}},{"id":"10750","label":"Nitrogen monoxide 10750 - THIS 42C - procedure, 47E704 - Wachtebeke","uom":"ug/m3","station":{"properties":{"id":1722,"label":"47E704 - Wachtebeke"},"geometry":{"coordinates":[3.8699281727522092,51.176100104067196,"NaN"],"type":"Point"},"type":"Feature"}},{"id":"10765","label":"Nitrogen monoxide 10765 - Unknown device - procedure, 42R804 - Antwerpen (Ring)","uom":"ug/m3","station":{"properties":{"id":1723,"label":"42R804 - Antwerpen (Ring)"},"geometry":{"coordinates":[4.441947090848594,51.2063039486545,"NaN"],"type":"Point"},"type":"Feature"}},{"id":"10927","label":"Nitrogen monoxide 10927 - Unknown device - procedure, 42R805 - Antwerpen (Belgiëlei)","uom":"ug/m3","station":{"properties":{"id":1713,"label":"42R805 - Antwerpen (Belgiëlei)"},"geometry":{"coordinates":[4.421559251065274,51.208229471816935,"NaN"],"type":"Point"},"type":"Feature"}},{"id":"6199","label":"Nitrogen monoxide 6199 - TEI42C - procedure, 40GK09 - GENK","uom":"ug/m3","station":{"properties":{"id":1045,"label":"40GK09 - GENK"},"geometry":{"coordinates":[5.492788429595824,50.934631219113264,"NaN"],"type":"Point"},"type":"Feature"}},{"id":"6216","label":"Nitrogen monoxide 6216 - TEI 42C - procedure, 40HB23 - HOBOKEN","uom":"ug/m3","station":{"properties":{"id":1048,"label":"40HB23 - HOBOKEN"},"geometry":{"coordinates":[4.341005064562843,51.1702980384352,"NaN"],"type":"Point"},"type":"Feature"}},{"id":"6271","label":"Nitrogen monoxide 6271 - TEI 42C - procedure, 40LD01 - LAAKDAL","uom":"ug/m3","station":{"properties":{"id":1058,"label":"40LD01 - LAAKDAL"},"geometry":{"coordinates":[5.0048643935877655,51.10997612046681,"NaN"],"type":"Point"},"type":"Feature"}},{"id":"6280","label":"Nitrogen monoxide 6280 - TEI 42C - procedure, 40LD02 - LAAKDAL","uom":"ug/m3","station":{"properties":{"id":1059,"label":"40LD02 - LAAKDAL"},"geometry":{"coordinates":[5.021545977609836,51.12038413709927,"NaN"],"type":"Point"},"type":"Feature"}},{"id":"6347","label":"Nitrogen monoxide 6347 - This 42C - procedure, 40SZ01 - STEENOKKERZEEL","uom":"ug/m3","station":{"properties":{"id":1073,"label":"40SZ01 - STEENOKKERZEEL"},"geometry":{"coordinates":[4.504183323312318,50.9145761371667,"NaN"],"type":"Point"},"type":"Feature"}},{"id":"6360","label":"Nitrogen monoxide 6360 - Unknown device - procedure, 40SZ02 - STEENOKKERZ","uom":"ug/m3","station":{"properties":{"id":1074,"label":"40SZ02 - STEENOKKERZ"},"geometry":{"coordinates":[4.512184346190292,50.913020423024705,"NaN"],"type":"Point"},"type":"Feature"}},{"id":"6503","label":"Nitrogen monoxide 6503 - vanaf 970317 AC-31M (Environneme - procedure, 41B001 - Arts-Loi","uom":"ug/m3","station":{"properties":{"id":1109,"label":"41B001 - Arts-Loi"},"geometry":{"coordinates":[4.368681223461491,50.84571510092824,"NaN"],"type":"Point"},"type":"Feature"}},{"id":"6507","label":"Nitrogen monoxide 6507 - AC-31M (Environnement); buiten werking tussen 20060301 tem 20080317 - procedure, 41B004 - Bruxelles (Sainte-Catherine)","uom":"ug/m3","station":{"properties":{"id":1110,"label":"41B004 - Bruxelles (Sainte-Catherine)"},"geometry":{"coordinates":[4.348587474273882,50.85081053679465,"NaN"],"type":"Point"},"type":"Feature"}},{"id":"6515","label":"Nitrogen monoxide 6515 - AC-31M (Environnement) - procedure, 41B006 - Bruxelles (Parlement UE)","uom":"ug/m3","station":{"properties":{"id":1112,"label":"41B006 - Bruxelles (Parlement UE)"},"geometry":{"coordinates":[4.374388283352736,50.83863118763396,"NaN"],"type":"Point"},"type":"Feature"}},{"id":"6527","label":"Nitrogen monoxide 6527 - AC-31M (Environnement) - procedure, 41B011 - Berchem-Sainte-Agathe","uom":"ug/m3","station":{"properties":{"id":1113,"label":"41B011 - Berchem-Sainte-Agathe"},"geometry":{"coordinates":[4.288336366305903,50.85803059327673,"NaN"],"type":"Point"},"type":"Feature"}},{"id":"6550","label":"Nitrogen monoxide 6550 - Unknown device - procedure, 41MEU1 - MEUDON","uom":"ug/m3","station":{"properties":{"id":1116,"label":"41MEU1 - MEUDON"},"geometry":{"coordinates":[4.392717697566155,50.89510056203213,"NaN"],"type":"Point"},"type":"Feature"}},{"id":"6560","label":"Nitrogen monoxide 6560 - ENVIRONNEMENT AC-31M - procedure, 41N043 - HAREN","uom":"ug/m3","station":{"properties":{"id":1117,"label":"41N043 - HAREN"},"geometry":{"coordinates":[4.3829632518023365,50.883559811382064,"NaN"],"type":"Point"},"type":"Feature"}},{"id":"6573","label":"Nitrogen monoxide 6573 - AC-31M (Environnement) - procedure, 41R001 - Molenbeek-Saint-Jean","uom":"ug/m3","station":{"properties":{"id":1118,"label":"41R001 - Molenbeek-Saint-Jean"},"geometry":{"coordinates":[4.3338197077120135,50.84966548806783,"NaN"],"type":"Point"},"type":"Feature"}},{"id":"6614","label":"Nitrogen monoxide 6614 - AC-31M (Environnement) sedert 96 - procedure, 41R002 - Ixelles","uom":"ug/m3","station":{"properties":{"id":1119,"label":"41R002 - Ixelles"},"geometry":{"coordinates":[4.384718841699582,50.82512787295696,"NaN"],"type":"Point"},"type":"Feature"}},{"id":"6621","label":"Nitrogen monoxide 6621 - AC-31M (Environnement) sedert 97 - procedure, 41R012 - UCCLE","uom":"ug/m3","station":{"properties":{"id":1122,"label":"41R012 - UCCLE"},"geometry":{"coordinates":[4.358538856351676,50.79663163849774,"NaN"],"type":"Point"},"type":"Feature"}},{"id":"6638","label":"Nitrogen monoxide 6638 - AC-31M (Environnement) sedert 97 - procedure, 41WOL1 - WOL.ST.L.","uom":"ug/m3","station":{"properties":{"id":1124,"label":"41WOL1 - WOL.ST.L."},"geometry":{"coordinates":[4.425703684244229,50.85657823741623,"NaN"],"type":"Point"},"type":"Feature"}},{"id":"6689","label":"Nitrogen monoxide 6689 - Env. AC32M - procedure, 42M802 - ANTWERPEN","uom":"ug/m3","station":{"properties":{"id":1127,"label":"42M802 - ANTWERPEN"},"geometry":{"coordinates":[4.424399006935331,51.26098970746686,"NaN"],"type":"Point"},"type":"Feature"}},{"id":"6701","label":"Nitrogen monoxide 6701 - THIS 42C - procedure, 42N016 - DESSEL","uom":"ug/m3","station":{"properties":{"id":1132,"label":"42N016 - DESSEL"},"geometry":{"coordinates":[5.163978846331755,51.23365220616215,"NaN"],"type":"Point"},"type":"Feature"}},{"id":"6709","label":"Nitrogen monoxide 6709 - TEI42C - procedure, 42N027 - BREE","uom":"ug/m3","station":{"properties":{"id":1136,"label":"42N027 - BREE"},"geometry":{"coordinates":[5.606659219704467,51.13371669601281,"NaN"],"type":"Point"},"type":"Feature"}},{"id":"6713","label":"Nitrogen monoxide 6713 - Env. AC32M - procedure, 42N035 - AARSCHOT","uom":"ug/m3","station":{"properties":{"id":1137,"label":"42N035 - AARSCHOT"},"geometry":{"coordinates":[4.837618015698611,50.97754137811404,"NaN"],"type":"Point"},"type":"Feature"}},{"id":"6717","label":"Nitrogen monoxide 6717 - Env. AC32M - procedure, 42N040 - Sint-Pieters-Leeuw (3m)","uom":"ug/m3","station":{"properties":{"id":1138,"label":"42N040 - Sint-Pieters-Leeuw (3m)"},"geometry":{"coordinates":[4.225194246746713,50.76813751325514,"NaN"],"type":"Point"},"type":"Feature"}},{"id":"6725","label":"Nitrogen monoxide 6725 - Env. AC32M - procedure, 42N045 - HASSELT","uom":"ug/m3","station":{"properties":{"id":1140,"label":"42N045 - HASSELT"},"geometry":{"coordinates":[5.368378532294256,50.93971186506705,"NaN"],"type":"Point"},"type":"Feature"}},{"id":"6742","label":"Nitrogen monoxide 6742 - Env. AC32M - procedure, 42N046 - GELLIK","uom":"ug/m3","station":{"properties":{"id":1141,"label":"42N046 - GELLIK"},"geometry":{"coordinates":[5.618873985239506,50.88229882582781,"NaN"],"type":"Point"},"type":"Feature"}},{"id":"6746","label":"Nitrogen monoxide 6746 - Env. AC32M - procedure, 42N054 - WALSHOUTEM","uom":"ug/m3","station":{"properties":{"id":1142,"label":"42N054 - WALSHOUTEM"},"geometry":{"coordinates":[5.103158609453954,50.7117060937334,"NaN"],"type":"Point"},"type":"Feature"}},{"id":"6752","label":"Nitrogen monoxide 6752 - THIS 42C - procedure, 42R010 - Sint-Stevens-Woluwe","uom":"ug/m3","station":{"properties":{"id":1143,"label":"42R010 - Sint-Stevens-Woluwe"},"geometry":{"coordinates":[4.428427283561208,50.865107883444516,"NaN"],"type":"Point"},"type":"Feature"}},{"id":"6768","label":"Nitrogen monoxide 6768 - THIS 42C - procedure, 42R020 - VILVOORDE","uom":"ug/m3","station":{"properties":{"id":1146,"label":"42R020 - VILVOORDE"},"geometry":{"coordinates":[4.436720763534066,50.94138711459375,"NaN"],"type":"Point"},"type":"Feature"}},{"id":"6775","label":"Nitrogen monoxide 6775 - THIS 42C - procedure, 42R801 - BORGERHOUT","uom":"ug/m3","station":{"properties":{"id":1147,"label":"42R801 - BORGERHOUT"},"geometry":{"coordinates":[4.431821046968842,51.20966253090978,"NaN"],"type":"Point"},"type":"Feature"}},{"id":"6791","label":"Nitrogen monoxide 6791 - TEI 42C - procedure, 42R811 - SCHOTEN","uom":"ug/m3","station":{"properties":{"id":1149,"label":"42R811 - SCHOTEN"},"geometry":{"coordinates":[4.49136202793544,51.25210341184452,"NaN"],"type":"Point"},"type":"Feature"}},{"id":"6802","label":"Nitrogen monoxide 6802 - Env. AC32M - procedure, 42R815 - ZWIJNDRECHT","uom":"ug/m3","station":{"properties":{"id":1153,"label":"42R815 - ZWIJNDRECHT"},"geometry":{"coordinates":[4.332206432310319,51.214698816375346,"NaN"],"type":"Point"},"type":"Feature"}},{"id":"6813","label":"Nitrogen monoxide 6813 - This 42C - procedure, 42R821 - BEVEREN","uom":"ug/m3","station":{"properties":{"id":1156,"label":"42R821 - BEVEREN"},"geometry":{"coordinates":[4.250314665917323,51.215499519245505,"NaN"],"type":"Point"},"type":"Feature"}},{"id":"6816","label":"Nitrogen monoxide 6816 - This 42C - procedure, 42R822 - ANTWERPEN","uom":"ug/m3","station":{"properties":{"id":1157,"label":"42R822 - ANTWERPEN"},"geometry":{"coordinates":[4.3412799924646635,51.26428978424844,"NaN"],"type":"Point"},"type":"Feature"}},{"id":"6825","label":"Nitrogen monoxide 6825 - This 42C - procedure, 42R830 - DOEL","uom":"ug/m3","station":{"properties":{"id":1158,"label":"42R830 - DOEL"},"geometry":{"coordinates":[4.262633729582559,51.31822863028182,"NaN"],"type":"Point"},"type":"Feature"}},{"id":"6829","label":"Nitrogen monoxide 6829 - AC32M Environnement - procedure, 42R831 - BERENDRECHT","uom":"ug/m3","station":{"properties":{"id":1159,"label":"42R831 - BERENDRECHT"},"geometry":{"coordinates":[4.339709947119865,51.348795291931914,"NaN"],"type":"Point"},"type":"Feature"}},{"id":"6851","label":"Nitrogen monoxide 6851 - TEI 42C - procedure, 42R841 - MECHELEN","uom":"ug/m3","station":{"properties":{"id":1162,"label":"42R841 - MECHELEN"},"geometry":{"coordinates":[4.469321036547794,51.002525968385235,"NaN"],"type":"Point"},"type":"Feature"}},{"id":"6857","label":"Nitrogen monoxide 6857 - Unknown device - procedure, 42R891 - ANTWERPEN","uom":"ug/m3","station":{"properties":{"id":1163,"label":"42R891 - ANTWERPEN"},"geometry":{"coordinates":[4.385359826049379,51.25580664431439,"NaN"],"type":"Point"},"type":"Feature"}},{"id":"6861","label":"Nitrogen monoxide 6861 - Unknown device - procedure, 42R892 - KALLO","uom":"ug/m3","station":{"properties":{"id":1164,"label":"42R892 - KALLO"},"geometry":{"coordinates":[4.278889976505925,51.263036822814726,"NaN"],"type":"Point"},"type":"Feature"}},{"id":"6865","label":"Nitrogen monoxide 6865 - Unknown device - procedure, 42R893 - ANTWERPEN","uom":"ug/m3","station":{"properties":{"id":1165,"label":"42R893 - ANTWERPEN"},"geometry":{"coordinates":[4.3857706195110095,51.28137805575266,"NaN"],"type":"Point"},"type":"Feature"}},{"id":"6869","label":"Nitrogen monoxide 6869 - Unknown device - procedure, 42R894 - ANTWERPEN","uom":"ug/m3","station":{"properties":{"id":1166,"label":"42R894 - ANTWERPEN"},"geometry":{"coordinates":[4.34949581364629,51.28349913251708,"NaN"],"type":"Point"},"type":"Feature"}},{"id":"6874","label":"Nitrogen monoxide 6874 - Unknown device - procedure, 42R897 - ANTWERPEN","uom":"ug/m3","station":{"properties":{"id":1168,"label":"42R897 - ANTWERPEN"},"geometry":{"coordinates":[4.342104511322137,51.250106498306934,"NaN"],"type":"Point"},"type":"Feature"}},{"id":"6889","label":"Nitrogen monoxide 6889 - ENVIRONNEMENT - procedure, 43N060 - HAVINNES","uom":"ug/m3","station":{"properties":{"id":1173,"label":"43N060 - HAVINNES"},"geometry":{"coordinates":[3.45762442718173,50.616718401793705,"NaN"],"type":"Point"},"type":"Feature"}},{"id":"6897","label":"Nitrogen monoxide 6897 - ENVIRONNEMENT - procedure, 43N063 - Corroy-Le-Grand","uom":"ug/m3","station":{"properties":{"id":1174,"label":"43N063 - Corroy-Le-Grand"},"geometry":{"coordinates":[4.668287682824636,50.65543910340031,"NaN"],"type":"Point"},"type":"Feature"}},{"id":"6905","label":"Nitrogen monoxide 6905 - ENVIRONNEMENT - procedure, 43N066 - EUPEN","uom":"ug/m3","station":{"properties":{"id":1176,"label":"43N066 - EUPEN"},"geometry":{"coordinates":[6.002328686936958,50.628860259817635,"NaN"],"type":"Point"},"type":"Feature"}},{"id":"6916","label":"Nitrogen monoxide 6916 - API 200A 1848 - procedure, 43N070 - MONS","uom":"ug/m3","station":{"properties":{"id":1178,"label":"43N070 - MONS"},"geometry":{"coordinates":[3.939714325523839,50.465192156426696,"NaN"],"type":"Point"},"type":"Feature"}},{"id":"6923","label":"Nitrogen monoxide 6923 - ENVIRONNEMENT - procedure, 43N073 - VEZIN","uom":"ug/m3","station":{"properties":{"id":1179,"label":"43N073 - VEZIN"},"geometry":{"coordinates":[4.988422954092517,50.50271634104244,"NaN"],"type":"Point"},"type":"Feature"}},{"id":"6933","label":"Nitrogen monoxide 6933 - API 200A 1849 - procedure, 43N085 - VIELSALM","uom":"ug/m3","station":{"properties":{"id":1180,"label":"43N085 - VIELSALM"},"geometry":{"coordinates":[6.00173628853782,50.30320782818842,"NaN"],"type":"Point"},"type":"Feature"}},{"id":"6940","label":"Nitrogen monoxide 6940 - ENVIRONNEMENT - procedure, 43N093 - SINSIN","uom":"ug/m3","station":{"properties":{"id":1181,"label":"43N093 - SINSIN"},"geometry":{"coordinates":[5.235168654774102,50.27447751094948,"NaN"],"type":"Point"},"type":"Feature"}},{"id":"6947","label":"Nitrogen monoxide 6947 - ENVIRONNEMENT - procedure, 43N100 - DOURBES","uom":"ug/m3","station":{"properties":{"id":1182,"label":"43N100 - DOURBES"},"geometry":{"coordinates":[4.594762762155874,50.09568343419087,"NaN"],"type":"Point"},"type":"Feature"}},{"id":"6954","label":"Nitrogen monoxide 6954 - ENVIRONNEMENT - procedure, 43N113 - SAINT-ODE","uom":"ug/m3","station":{"properties":{"id":1183,"label":"43N113 - SAINT-ODE"},"geometry":{"coordinates":[5.593016914066438,50.0270290173477,"NaN"],"type":"Point"},"type":"Feature"}},{"id":"6960","label":"Nitrogen monoxide 6960 - ENVIRONNEMENT - procedure, 43N121 - OFFAGNE","uom":"ug/m3","station":{"properties":{"id":1184,"label":"43N121 - OFFAGNE"},"geometry":{"coordinates":[5.202387466800059,49.87712849132921,"NaN"],"type":"Point"},"type":"Feature"}},{"id":"6967","label":"Nitrogen monoxide 6967 - Unknown device - procedure, 43N132 - Habay-La-Neuve","uom":"ug/m3","station":{"properties":{"id":1185,"label":"43N132 - Habay-La-Neuve"},"geometry":{"coordinates":[5.630397740609139,49.71928118788098,"NaN"],"type":"Point"},"type":"Feature"}},{"id":"6997","label":"Nitrogen monoxide 6997 - ISEO Argopol-SAM-XAIR - procedure, 43R222 - SERAING","uom":"ug/m3","station":{"properties":{"id":1191,"label":"43R222 - SERAING"},"geometry":{"coordinates":[5.570222814112576,50.61341250148177,"NaN"],"type":"Point"},"type":"Feature"}},{"id":"7005","label":"Nitrogen monoxide 7005 - ML9841B MONITOR LABS - procedure, 43R223 - JEMEPPE","uom":"ug/m3","station":{"properties":{"id":1192,"label":"43R223 - JEMEPPE"},"geometry":{"coordinates":[5.516404755142993,50.62067087883907,"NaN"],"type":"Point"},"type":"Feature"}},{"id":"7016","label":"Nitrogen monoxide 7016 - ML9841B MONITOR LABS - procedure, 43R240 - ENGIS","uom":"ug/m3","station":{"properties":{"id":1195,"label":"43R240 - ENGIS"},"geometry":{"coordinates":[5.397446050127326,50.583614347368496,"NaN"],"type":"Point"},"type":"Feature"}},{"id":"7025","label":"Nitrogen monoxide 7025 - This 42C - procedure, 44M702 - ERTVELDE","uom":"ug/m3","station":{"properties":{"id":1196,"label":"44M702 - ERTVELDE"},"geometry":{"coordinates":[3.7621373591006364,51.166023221149736,"NaN"],"type":"Point"},"type":"Feature"}},{"id":"7031","label":"Nitrogen monoxide 7031 - Env. AC32M - procedure, 44M705 - ROESELARE","uom":"ug/m3","station":{"properties":{"id":1198,"label":"44M705 - ROESELARE"},"geometry":{"coordinates":[3.152401590470015,50.945359241350246,"NaN"],"type":"Point"},"type":"Feature"}},{"id":"7039","label":"Nitrogen monoxide 7039 - THIS 42C - procedure, 44N012 - MOERKERKE","uom":"ug/m3","station":{"properties":{"id":1200,"label":"44N012 - MOERKERKE"},"geometry":{"coordinates":[3.3625358887016037,51.25457362243622,"NaN"],"type":"Point"},"type":"Feature"}},{"id":"7046","label":"Nitrogen monoxide 7046 - THIS 42C - procedure, 44N029 - HOUTEM","uom":"ug/m3","station":{"properties":{"id":1202,"label":"44N029 - HOUTEM"},"geometry":{"coordinates":[2.5823227814897467,51.016280111137796,"NaN"],"type":"Point"},"type":"Feature"}},{"id":"7062","label":"Nitrogen monoxide 7062 - This 42i - procedure, 44N051 - IDEGEM","uom":"ug/m3","station":{"properties":{"id":1205,"label":"44N051 - IDEGEM"},"geometry":{"coordinates":[3.9302932376017643,50.79891560368892,"NaN"],"type":"Point"},"type":"Feature"}},{"id":"7066","label":"Nitrogen monoxide 7066 - This 42C - procedure, 44N052 - ZWEVEGEM","uom":"ug/m3","station":{"properties":{"id":1206,"label":"44N052 - ZWEVEGEM"},"geometry":{"coordinates":[3.322494319037278,50.81487386991962,"NaN"],"type":"Point"},"type":"Feature"}},{"id":"7073","label":"Nitrogen monoxide 7073 - THIS 42C - procedure, 44R701 - GENT","uom":"ug/m3","station":{"properties":{"id":1207,"label":"44R701 - GENT"},"geometry":{"coordinates":[3.729298171690588,51.05833171626465,"NaN"],"type":"Point"},"type":"Feature"}},{"id":"7089","label":"Nitrogen monoxide 7089 - Env. AC32M - procedure, 44R710 - DESTELBERGE","uom":"ug/m3","station":{"properties":{"id":1208,"label":"44R710 - DESTELBERGE"},"geometry":{"coordinates":[3.7752623896453614,51.06127769765444,"NaN"],"type":"Point"},"type":"Feature"}},{"id":"7096","label":"Nitrogen monoxide 7096 - This 42C - procedure, 44R721 - WONDELGEM","uom":"ug/m3","station":{"properties":{"id":1210,"label":"44R721 - WONDELGEM"},"geometry":{"coordinates":[3.7161193706960214,51.08895772366413,"NaN"],"type":"Point"},"type":"Feature"}},{"id":"7104","label":"Nitrogen monoxide 7104 - THIS 42C - procedure, 44R731 - EVERGEM","uom":"ug/m3","station":{"properties":{"id":1212,"label":"44R731 - EVERGEM"},"geometry":{"coordinates":[3.739504220441929,51.12469051189974,"NaN"],"type":"Point"},"type":"Feature"}},{"id":"7110","label":"Nitrogen monoxide 7110 - THIS 42C - procedure, 44R740 - Sint-Kruiswinkel","uom":"ug/m3","station":{"properties":{"id":1213,"label":"44R740 - Sint-Kruiswinkel"},"geometry":{"coordinates":[3.8087354304127436,51.15013609000057,"NaN"],"type":"Point"},"type":"Feature"}},{"id":"7121","label":"Nitrogen monoxide 7121 - This 42C - procedure, 44R750 - ZELZATE","uom":"ug/m3","station":{"properties":{"id":1214,"label":"44R750 - ZELZATE"},"geometry":{"coordinates":[3.8229200468043345,51.19606326849909,"NaN"],"type":"Point"},"type":"Feature"}},{"id":"7131","label":"Nitrogen monoxide 7131 - MELOY NA - procedure, 45R501 - CHARLEROI","uom":"ug/m3","station":{"properties":{"id":1217,"label":"45R501 - CHARLEROI"},"geometry":{"coordinates":[4.452171781049857,50.409311452014755,"NaN"],"type":"Point"},"type":"Feature"}},{"id":"7140","label":"Nitrogen monoxide 7140 - Unknown device - procedure, 45R502 - LODELINSART","uom":"ug/m3","station":{"properties":{"id":1218,"label":"45R502 - LODELINSART"},"geometry":{"coordinates":[4.458680858021719,50.428995392896034,"NaN"],"type":"Point"},"type":"Feature"}},{"id":"7159","label":"Nitrogen monoxide 7159 - ML9841B MONITOR LABS - procedure, 45R512 - MARCHIENNE","uom":"ug/m3","station":{"properties":{"id":1221,"label":"45R512 - MARCHIENNE"},"geometry":{"coordinates":[4.3958971170392385,50.4078101994165,"NaN"],"type":"Point"},"type":"Feature"}},{"id":"7176","label":"Nitrogen monoxide 7176 - Unknown device - procedure, 47E007 - Sint-Pieters-Leeuw","uom":"ug/m3","station":{"properties":{"id":1231,"label":"47E007 - Sint-Pieters-Leeuw"},"geometry":{"coordinates":[4.252628452872857,50.79529862668792,"NaN"],"type":"Point"},"type":"Feature"}},{"id":"7179","label":"Nitrogen monoxide 7179 - Unknown device - procedure, 47E008 - Grimbergen","uom":"ug/m3","station":{"properties":{"id":1232,"label":"47E008 - Grimbergen"},"geometry":{"coordinates":[4.395920014137027,50.92609511609174,"NaN"],"type":"Point"},"type":"Feature"}},{"id":"7182","label":"Nitrogen monoxide 7182 - Unknown device - procedure, 47E009 - Zemst","uom":"ug/m3","station":{"properties":{"id":1233,"label":"47E009 - Zemst"},"geometry":{"coordinates":[4.435416984927745,50.95491668793431,"NaN"],"type":"Point"},"type":"Feature"}},{"id":"7185","label":"Nitrogen monoxide 7185 - Unknown device - procedure, 47E013 - Vorst","uom":"ug/m3","station":{"properties":{"id":1234,"label":"47E013 - Vorst"},"geometry":{"coordinates":[4.328384665101023,50.81170089402052,"NaN"],"type":"Point"},"type":"Feature"}},{"id":"7191","label":"Nitrogen monoxide 7191 - Unknown device - procedure, 47E702 - ELSEGEM","uom":"ug/m3","station":{"properties":{"id":1236,"label":"47E702 - ELSEGEM"},"geometry":{"coordinates":[3.5317400849507408,50.81400061768193,"NaN"],"type":"Point"},"type":"Feature"}},{"id":"7194","label":"Nitrogen monoxide 7194 - Unknown device - procedure, 47E703 - OOSTEEKLO","uom":"ug/m3","station":{"properties":{"id":1237,"label":"47E703 - OOSTEEKLO"},"geometry":{"coordinates":[3.6872957563519906,51.19031704157238,"NaN"],"type":"Point"},"type":"Feature"}},{"id":"7200","label":"Nitrogen monoxide 7200 - Unknown device - procedure, 47E714 - DUDZELE","uom":"ug/m3","station":{"properties":{"id":1239,"label":"47E714 - DUDZELE"},"geometry":{"coordinates":[3.248624062941197,51.278963303557305,"NaN"],"type":"Point"},"type":"Feature"}},{"id":"7203","label":"Nitrogen monoxide 7203 - Unknown device - procedure, 47E715 - ZUIENKERKE","uom":"ug/m3","station":{"properties":{"id":1240,"label":"47E715 - ZUIENKERKE"},"geometry":{"coordinates":[3.1749842016808905,51.24586421667566,"NaN"],"type":"Point"},"type":"Feature"}},{"id":"7206","label":"Nitrogen monoxide 7206 - Unknown device - procedure, 47E716 - MARIAKERKE","uom":"ug/m3","station":{"properties":{"id":1241,"label":"47E716 - MARIAKERKE"},"geometry":{"coordinates":[3.6828130172031246,51.06698790152142,"NaN"],"type":"Point"},"type":"Feature"}},{"id":"7209","label":"Nitrogen monoxide 7209 - Unknown device - procedure, 47E804 - Kallo","uom":"ug/m3","station":{"properties":{"id":1242,"label":"47E804 - Kallo"},"geometry":{"coordinates":[4.307160295263194,51.28139068388945,"NaN"],"type":"Point"},"type":"Feature"}},{"id":"10701","label":"Ozone 10701 - Unknown device - procedure, 43R221 - LIEGE","uom":"ug/m3","station":{"properties":{"id":1190,"label":"43R221 - LIEGE"},"geometry":{"coordinates":[5.6278352908526506,50.65844441678642,"NaN"],"type":"Point"},"type":"Feature"}},{"id":"10766","label":"Ozone 10766 - Unknown device - procedure, 41MEU1 - MEUDON","uom":"ug/m3","station":{"properties":{"id":1116,"label":"41MEU1 - MEUDON"},"geometry":{"coordinates":[4.392717697566155,50.89510056203213,"NaN"],"type":"Point"},"type":"Feature"}},{"id":"6509","label":"Ozone 6509 - AF 41M (Environnement); buiten werking tussen 20060301 tem 20080317 - procedure, 41B004 - Bruxelles (Sainte-Catherine)","uom":"ug/m3","station":{"properties":{"id":1110,"label":"41B004 - Bruxelles (Sainte-Catherine)"},"geometry":{"coordinates":[4.348587474273882,50.85081053679465,"NaN"],"type":"Point"},"type":"Feature"}},{"id":"6517","label":"Ozone 6517 - O3-41M - procedure, 41B006 - Bruxelles (Parlement UE)","uom":"ug/m3","station":{"properties":{"id":1112,"label":"41B006 - Bruxelles (Parlement UE)"},"geometry":{"coordinates":[4.374388283352736,50.83863118763396,"NaN"],"type":"Point"},"type":"Feature"}},{"id":"6530","label":"Ozone 6530 - O3-41M (SN172-Environnement) tot 16/2/2001 vanaf dan SN1270 - procedure, 41B011 - Berchem-Sainte-Agathe","uom":"ug/m3","station":{"properties":{"id":1113,"label":"41B011 - Berchem-Sainte-Agathe"},"geometry":{"coordinates":[4.288336366305903,50.85803059327673,"NaN"],"type":"Point"},"type":"Feature"}},{"id":"6562","label":"Ozone 6562 - This 49C - procedure, 41N043 - HAREN","uom":"ug/m3","station":{"properties":{"id":1117,"label":"41N043 - HAREN"},"geometry":{"coordinates":[4.3829632518023365,50.883559811382064,"NaN"],"type":"Point"},"type":"Feature"}},{"id":"6577","label":"Ozone 6577 - O3-41M (Environnement) - procedure, 41R001 - Molenbeek-Saint-Jean","uom":"ug/m3","station":{"properties":{"id":1118,"label":"41R001 - Molenbeek-Saint-Jean"},"geometry":{"coordinates":[4.3338197077120135,50.84966548806783,"NaN"],"type":"Point"},"type":"Feature"}},{"id":"6625","label":"Ozone 6625 - O3-41M (Environnement) sedert 19 - procedure, 41R012 - UCCLE","uom":"ug/m3","station":{"properties":{"id":1122,"label":"41R012 - UCCLE"},"geometry":{"coordinates":[4.358538856351676,50.79663163849774,"NaN"],"type":"Point"},"type":"Feature"}},{"id":"6642","label":"Ozone 6642 - UV-O31M sedert 9605 voorheen che - procedure, 41WOL1 - WOL.ST.L.","uom":"ug/m3","station":{"properties":{"id":1124,"label":"41WOL1 - WOL.ST.L."},"geometry":{"coordinates":[4.425703684244229,50.85657823741623,"NaN"],"type":"Point"},"type":"Feature"}},{"id":"6703","label":"Ozone 6703 - Mon. Labs9812 tot 20041014, nu API400E - procedure, 42N016 - DESSEL","uom":"ug/m3","station":{"properties":{"id":1132,"label":"42N016 - DESSEL"},"geometry":{"coordinates":[5.163978846331755,51.23365220616215,"NaN"],"type":"Point"},"type":"Feature"}},{"id":"6711","label":"Ozone 6711 - API400E - procedure, 42N027 - BREE","uom":"ug/m3","station":{"properties":{"id":1136,"label":"42N027 - BREE"},"geometry":{"coordinates":[5.606659219704467,51.13371669601281,"NaN"],"type":"Point"},"type":"Feature"}},{"id":"6715","label":"Ozone 6715 - Mon. Labs9812 tot 20041219, nu API400E - procedure, 42N035 - AARSCHOT","uom":"ug/m3","station":{"properties":{"id":1137,"label":"42N035 - AARSCHOT"},"geometry":{"coordinates":[4.837618015698611,50.97754137811404,"NaN"],"type":"Point"},"type":"Feature"}},{"id":"6719","label":"Ozone 6719 - Environnement 0341M; vanaf 20060317 API400E - procedure, 42N040 - Sint-Pieters-Leeuw (3m)","uom":"ug/m3","station":{"properties":{"id":1138,"label":"42N040 - Sint-Pieters-Leeuw (3m)"},"geometry":{"coordinates":[4.225194246746713,50.76813751325514,"NaN"],"type":"Point"},"type":"Feature"}},{"id":"6722","label":"Ozone 6722 - Environnement O341M; vanaf 20060317 API400E - procedure, 42N041 - Sint-Pieters-Leeuw (198m)","uom":"ug/m3","station":{"properties":{"id":1139,"label":"42N041 - Sint-Pieters-Leeuw (198m)"},"geometry":{"coordinates":[4.224188711791585,50.76783063159073,"NaN"],"type":"Point"},"type":"Feature"}},{"id":"6731","label":"Ozone 6731 - API400E - procedure, 42N045 - HASSELT","uom":"ug/m3","station":{"properties":{"id":1140,"label":"42N045 - HASSELT"},"geometry":{"coordinates":[5.368378532294256,50.93971186506705,"NaN"],"type":"Point"},"type":"Feature"}},{"id":"6744","label":"Ozone 6744 - MONITOR LABS 9812 tot 20030307, API400E - procedure, 42N046 - GELLIK","uom":"ug/m3","station":{"properties":{"id":1141,"label":"42N046 - GELLIK"},"geometry":{"coordinates":[5.618873985239506,50.88229882582781,"NaN"],"type":"Point"},"type":"Feature"}},{"id":"6748","label":"Ozone 6748 - Mon. Labs9812 tot 20041028, nu API400E - procedure, 42N054 - WALSHOUTEM","uom":"ug/m3","station":{"properties":{"id":1142,"label":"42N054 - WALSHOUTEM"},"geometry":{"coordinates":[5.103158609453954,50.7117060937334,"NaN"],"type":"Point"},"type":"Feature"}},{"id":"6778","label":"Ozone 6778 - Mon. Labs9812 tot 20041014, nu API400E - procedure, 42R801 - BORGERHOUT","uom":"ug/m3","station":{"properties":{"id":1147,"label":"42R801 - BORGERHOUT"},"geometry":{"coordinates":[4.431821046968842,51.20966253090978,"NaN"],"type":"Point"},"type":"Feature"}},{"id":"6793","label":"Ozone 6793 - API400E - procedure, 42R811 - SCHOTEN","uom":"ug/m3","station":{"properties":{"id":1149,"label":"42R811 - SCHOTEN"},"geometry":{"coordinates":[4.49136202793544,51.25210341184452,"NaN"],"type":"Point"},"type":"Feature"}},{"id":"6832","label":"Ozone 6832 - Env.O341M tot 20041004, nu API400E - procedure, 42R831 - BERENDRECHT","uom":"ug/m3","station":{"properties":{"id":1159,"label":"42R831 - BERENDRECHT"},"geometry":{"coordinates":[4.339709947119865,51.348795291931914,"NaN"],"type":"Point"},"type":"Feature"}},{"id":"6853","label":"Ozone 6853 - API400E - procedure, 42R841 - MECHELEN","uom":"ug/m3","station":{"properties":{"id":1162,"label":"42R841 - MECHELEN"},"geometry":{"coordinates":[4.469321036547794,51.002525968385235,"NaN"],"type":"Point"},"type":"Feature"}},{"id":"6891","label":"Ozone 6891 - 400 E Teledyne - procedure, 43N060 - HAVINNES","uom":"ug/m3","station":{"properties":{"id":1173,"label":"43N060 - HAVINNES"},"geometry":{"coordinates":[3.45762442718173,50.616718401793705,"NaN"],"type":"Point"},"type":"Feature"}},{"id":"6899","label":"Ozone 6899 - 400 E Teledyne - procedure, 43N063 - Corroy-Le-Grand","uom":"ug/m3","station":{"properties":{"id":1174,"label":"43N063 - Corroy-Le-Grand"},"geometry":{"coordinates":[4.668287682824636,50.65543910340031,"NaN"],"type":"Point"},"type":"Feature"}},{"id":"6907","label":"Ozone 6907 - API since 4/98 - procedure, 43N066 - EUPEN","uom":"ug/m3","station":{"properties":{"id":1176,"label":"43N066 - EUPEN"},"geometry":{"coordinates":[6.002328686936958,50.628860259817635,"NaN"],"type":"Point"},"type":"Feature"}},{"id":"6918","label":"Ozone 6918 - O341M - ENVIRONNEMENT - procedure, 43N070 - MONS","uom":"ug/m3","station":{"properties":{"id":1178,"label":"43N070 - MONS"},"geometry":{"coordinates":[3.939714325523839,50.465192156426696,"NaN"],"type":"Point"},"type":"Feature"}},{"id":"6925","label":"Ozone 6925 - O341M - ENVIRONNEMENT - procedure, 43N073 - VEZIN","uom":"ug/m3","station":{"properties":{"id":1179,"label":"43N073 - VEZIN"},"geometry":{"coordinates":[4.988422954092517,50.50271634104244,"NaN"],"type":"Point"},"type":"Feature"}},{"id":"6935","label":"Ozone 6935 - O341M - ENVIRONNEMENT - procedure, 43N085 - VIELSALM","uom":"ug/m3","station":{"properties":{"id":1180,"label":"43N085 - VIELSALM"},"geometry":{"coordinates":[6.00173628853782,50.30320782818842,"NaN"],"type":"Point"},"type":"Feature"}},{"id":"6942","label":"Ozone 6942 - O341M - ENVIRONNEMENT - procedure, 43N093 - SINSIN","uom":"ug/m3","station":{"properties":{"id":1181,"label":"43N093 - SINSIN"},"geometry":{"coordinates":[5.235168654774102,50.27447751094948,"NaN"],"type":"Point"},"type":"Feature"}},{"id":"6949","label":"Ozone 6949 - O341M - ENVIRONNEMENT - procedure, 43N100 - DOURBES","uom":"ug/m3","station":{"properties":{"id":1182,"label":"43N100 - DOURBES"},"geometry":{"coordinates":[4.594762762155874,50.09568343419087,"NaN"],"type":"Point"},"type":"Feature"}},{"id":"6956","label":"Ozone 6956 - O341M - ENVIRONNEMENT - procedure, 43N113 - SAINT-ODE","uom":"ug/m3","station":{"properties":{"id":1183,"label":"43N113 - SAINT-ODE"},"geometry":{"coordinates":[5.593016914066438,50.0270290173477,"NaN"],"type":"Point"},"type":"Feature"}},{"id":"6962","label":"Ozone 6962 - API 400 - procedure, 43N121 - OFFAGNE","uom":"ug/m3","station":{"properties":{"id":1184,"label":"43N121 - OFFAGNE"},"geometry":{"coordinates":[5.202387466800059,49.87712849132921,"NaN"],"type":"Point"},"type":"Feature"}},{"id":"6969","label":"Ozone 6969 - O341M - ENVIRONNEMENT - procedure, 43N132 - Habay-La-Neuve","uom":"ug/m3","station":{"properties":{"id":1185,"label":"43N132 - Habay-La-Neuve"},"geometry":{"coordinates":[5.630397740609139,49.71928118788098,"NaN"],"type":"Point"},"type":"Feature"}},{"id":"6999","label":"Ozone 6999 - ISEO Argopol-SAM-XAIR - procedure, 43R222 - SERAING","uom":"ug/m3","station":{"properties":{"id":1191,"label":"43R222 - SERAING"},"geometry":{"coordinates":[5.570222814112576,50.61341250148177,"NaN"],"type":"Point"},"type":"Feature"}},{"id":"7020","label":"Ozone 7020 - O341M - ENVIRONNEMENT - procedure, 43R240 - ENGIS","uom":"ug/m3","station":{"properties":{"id":1195,"label":"43R240 - ENGIS"},"geometry":{"coordinates":[5.397446050127326,50.583614347368496,"NaN"],"type":"Point"},"type":"Feature"}},{"id":"7033","label":"Ozone 7033 - Env.O341M tot 20041205, nu API400E - procedure, 44M705 - ROESELARE","uom":"ug/m3","station":{"properties":{"id":1198,"label":"44M705 - ROESELARE"},"geometry":{"coordinates":[3.152401590470015,50.945359241350246,"NaN"],"type":"Point"},"type":"Feature"}},{"id":"7041","label":"Ozone 7041 - Env.O341M tot 20041207, nu API400E - procedure, 44N012 - MOERKERKE","uom":"ug/m3","station":{"properties":{"id":1200,"label":"44N012 - MOERKERKE"},"geometry":{"coordinates":[3.3625358887016037,51.25457362243622,"NaN"],"type":"Point"},"type":"Feature"}},{"id":"7048","label":"Ozone 7048 - Mon. Labs9812 tot 20041206, nu API400E - procedure, 44N029 - HOUTEM","uom":"ug/m3","station":{"properties":{"id":1202,"label":"44N029 - HOUTEM"},"geometry":{"coordinates":[2.5823227814897467,51.016280111137796,"NaN"],"type":"Point"},"type":"Feature"}},{"id":"7064","label":"Ozone 7064 - Mon. Labs9812 tot 20041115, nu API400E - procedure, 44N051 - IDEGEM","uom":"ug/m3","station":{"properties":{"id":1205,"label":"44N051 - IDEGEM"},"geometry":{"coordinates":[3.9302932376017643,50.79891560368892,"NaN"],"type":"Point"},"type":"Feature"}},{"id":"7068","label":"Ozone 7068 - API400 - procedure, 44N052 - ZWEVEGEM","uom":"ug/m3","station":{"properties":{"id":1206,"label":"44N052 - ZWEVEGEM"},"geometry":{"coordinates":[3.322494319037278,50.81487386991962,"NaN"],"type":"Point"},"type":"Feature"}},{"id":"7078","label":"Ozone 7078 - Env. O341M tot 20041114, nu API400E - procedure, 44R701 - GENT","uom":"ug/m3","station":{"properties":{"id":1207,"label":"44R701 - GENT"},"geometry":{"coordinates":[3.729298171690588,51.05833171626465,"NaN"],"type":"Point"},"type":"Feature"}},{"id":"7091","label":"Ozone 7091 - API400E - procedure, 44R710 - DESTELBERGE","uom":"ug/m3","station":{"properties":{"id":1208,"label":"44R710 - DESTELBERGE"},"geometry":{"coordinates":[3.7752623896453614,51.06127769765444,"NaN"],"type":"Point"},"type":"Feature"}},{"id":"7115","label":"Ozone 7115 - ENVIRONNEMENT O341M tot 20030312, API400E - procedure, 44R740 - Sint-Kruiswinkel","uom":"ug/m3","station":{"properties":{"id":1213,"label":"44R740 - Sint-Kruiswinkel"},"geometry":{"coordinates":[3.8087354304127436,51.15013609000057,"NaN"],"type":"Point"},"type":"Feature"}},{"id":"7142","label":"Ozone 7142 - MONITOR LABS 9812 - procedure, 45R502 - LODELINSART","uom":"ug/m3","station":{"properties":{"id":1218,"label":"45R502 - LODELINSART"},"geometry":{"coordinates":[4.458680858021719,50.428995392896034,"NaN"],"type":"Point"},"type":"Feature"}},{"id":"6913","label":"Particulate Matter < 1 µm 6913 - GRIMM - procedure, 43N067 - MEMBACH","uom":"ug/m3","station":{"properties":{"id":1177,"label":"43N067 - MEMBACH"},"geometry":{"coordinates":[5.9927527191870515,50.612277528133816,"NaN"],"type":"Point"},"type":"Feature"}},{"id":"10600","label":"Particulate Matter < 10 µm 10600 -  - procedure, 42R831 - BERENDRECHT","uom":"ug/m3","station":{"properties":{"id":1159,"label":"42R831 - BERENDRECHT"},"geometry":{"coordinates":[4.339709947119865,51.348795291931914,"NaN"],"type":"Point"},"type":"Feature"}},{"id":"10610","label":"Particulate Matter < 10 µm 10610 - Unknown device - procedure, 42R834 - Boom","uom":"ug/m3","station":{"properties":{"id":1710,"label":"42R834 - Boom"},"geometry":{"coordinates":[4.380103544882492,51.09200003750422,"NaN"],"type":"Point"},"type":"Feature"}},{"id":"10680","label":"Particulate Matter < 10 µm 10680 - Unknown device - procedure, 40OB02 - Wielsbeke","uom":"ug/m3","station":{"properties":{"id":1714,"label":"40OB02 - Wielsbeke"},"geometry":{"coordinates":[3.3762116310860217,50.91495296088094,"NaN"],"type":"Point"},"type":"Feature"}},{"id":"10691","label":"Particulate Matter < 10 µm 10691 - Unknown device - procedure, 40SA04 - Hoevenen","uom":"ug/m3","station":{"properties":{"id":1719,"label":"40SA04 - Hoevenen"},"geometry":{"coordinates":[4.403868139749608,51.31392889414465,"NaN"],"type":"Point"},"type":"Feature"}},{"id":"10704","label":"Particulate Matter < 10 µm 10704 - Unknown device - procedure, 44R702 - Gent (G.Carlierlaan)","uom":"ug/m3","station":{"properties":{"id":1715,"label":"44R702 - Gent (G.Carlierlaan)"},"geometry":{"coordinates":[3.734971479685308,51.04068941942729,"NaN"],"type":"Point"},"type":"Feature"}},{"id":"10743","label":"Particulate Matter < 10 µm 10743 - THIS 42C - procedure, 42R803 - Antwerpen (Park Spoor Noord)","uom":"ug/m3","station":{"properties":{"id":1720,"label":"42R803 - Antwerpen (Park Spoor Noord)"},"geometry":{"coordinates":[4.428454177535566,51.22862981306352,"NaN"],"type":"Point"},"type":"Feature"}},{"id":"10748","label":"Particulate Matter < 10 µm 10748 - THIS 42C - procedure, 42R817 - Antwerpen (Groenenborgerlaan)","uom":"ug/m3","station":{"properties":{"id":1721,"label":"42R817 - Antwerpen (Groenenborgerlaan)"},"geometry":{"coordinates":[4.417948637777734,51.17713088779353,"NaN"],"type":"Point"},"type":"Feature"}},{"id":"10762","label":"Particulate Matter < 10 µm 10762 - Unknown device - procedure, 42R804 - Antwerpen (Ring)","uom":"ug/m3","station":{"properties":{"id":1723,"label":"42R804 - Antwerpen (Ring)"},"geometry":{"coordinates":[4.441947090848594,51.2063039486545,"NaN"],"type":"Point"},"type":"Feature"}},{"id":"10929","label":"Particulate Matter < 10 µm 10929 - Unknown device - procedure, 42R805 - Antwerpen (Belgiëlei)","uom":"ug/m3","station":{"properties":{"id":1713,"label":"42R805 - Antwerpen (Belgiëlei)"},"geometry":{"coordinates":[4.421559251065274,51.208229471816935,"NaN"],"type":"Point"},"type":"Feature"}},{"id":"6152","label":"Particulate Matter < 10 µm 6152 - DAILY CORRECTION TEOM - procedure, 40AL01 - LINKEROEVER","uom":"ug/m3","station":{"properties":{"id":1030,"label":"40AL01 - LINKEROEVER"},"geometry":{"coordinates":[4.3852236844547186,51.23619419990224,"NaN"],"type":"Point"},"type":"Feature"}},{"id":"6153","label":"Particulate Matter < 10 µm 6153 - Unknown device - procedure, 40AL02 - BEVEREN","uom":"ug/m3","station":{"properties":{"id":1031,"label":"40AL02 - BEVEREN"},"geometry":{"coordinates":[4.23483275314406,51.30452079034404,"NaN"],"type":"Point"},"type":"Feature"}},{"id":"6157","label":"Particulate Matter < 10 µm 6157 - Unknown device - procedure, 40AL05 - BEVEREN","uom":"ug/m3","station":{"properties":{"id":1034,"label":"40AL05 - BEVEREN"},"geometry":{"coordinates":[4.278889821667829,51.263117716873445,"NaN"],"type":"Point"},"type":"Feature"}},{"id":"6196","label":"Particulate Matter < 10 µm 6196 - DAILY CORRECTION TEOM - procedure, 40GK06 - GENK","uom":"ug/m3","station":{"properties":{"id":1044,"label":"40GK06 - GENK"},"geometry":{"coordinates":[5.470620037487621,50.927891843265485,"NaN"],"type":"Point"},"type":"Feature"}},{"id":"6218","label":"Particulate Matter < 10 µm 6218 - TEOM-FDMS - procedure, 40HB23 - HOBOKEN","uom":"ug/m3","station":{"properties":{"id":1048,"label":"40HB23 - HOBOKEN"},"geometry":{"coordinates":[4.341005064562843,51.1702980384352,"NaN"],"type":"Point"},"type":"Feature"}},{"id":"6301","label":"Particulate Matter < 10 µm 6301 - DAILY CORRECTION TEOM - procedure, 40MN01 - MENEN","uom":"ug/m3","station":{"properties":{"id":1062,"label":"40MN01 - MENEN"},"geometry":{"coordinates":[3.1096418744986667,50.79346904431329,"NaN"],"type":"Point"},"type":"Feature"}},{"id":"6324","label":"Particulate Matter < 10 µm 6324 - TEOM-FDMS - procedure, 40OB01 - OOSTROZEBEK","uom":"ug/m3","station":{"properties":{"id":1066,"label":"40OB01 - OOSTROZEBEK"},"geometry":{"coordinates":[3.307385799335757,50.91722844102666,"NaN"],"type":"Point"},"type":"Feature"}},{"id":"6334","label":"Particulate Matter < 10 µm 6334 - DAILY CORRECTION TEOM - procedure, 40RL01 - ROESELARE","uom":"ug/m3","station":{"properties":{"id":1070,"label":"40RL01 - ROESELARE"},"geometry":{"coordinates":[3.121155598901246,50.95317728023845,"NaN"],"type":"Point"},"type":"Feature"}},{"id":"6368","label":"Particulate Matter < 10 µm 6368 - TEOM-FDMS - procedure, 40SZ02 - STEENOKKERZ","uom":"ug/m3","station":{"properties":{"id":1074,"label":"40SZ02 - STEENOKKERZ"},"geometry":{"coordinates":[4.512184346190292,50.913020423024705,"NaN"],"type":"Point"},"type":"Feature"}},{"id":"6531","label":"Particulate Matter < 10 µm 6531 - FDMS PM10 - procedure, 41B011 - Berchem-Sainte-Agathe","uom":"ug/m3","station":{"properties":{"id":1113,"label":"41B011 - Berchem-Sainte-Agathe"},"geometry":{"coordinates":[4.288336366305903,50.85803059327673,"NaN"],"type":"Point"},"type":"Feature"}},{"id":"6552","label":"Particulate Matter < 10 µm 6552 - FDMS PM10 - procedure, 41MEU1 - MEUDON","uom":"ug/m3","station":{"properties":{"id":1116,"label":"41MEU1 - MEUDON"},"geometry":{"coordinates":[4.392717697566155,50.89510056203213,"NaN"],"type":"Point"},"type":"Feature"}},{"id":"6563","label":"Particulate Matter < 10 µm 6563 - TEOM FDMS - procedure, 41N043 - HAREN","uom":"ug/m3","station":{"properties":{"id":1117,"label":"41N043 - HAREN"},"geometry":{"coordinates":[4.3829632518023365,50.883559811382064,"NaN"],"type":"Point"},"type":"Feature"}},{"id":"6578","label":"Particulate Matter < 10 µm 6578 - TEOM FDMS - procedure, 41R001 - Molenbeek-Saint-Jean","uom":"ug/m3","station":{"properties":{"id":1118,"label":"41R001 - Molenbeek-Saint-Jean"},"geometry":{"coordinates":[4.3338197077120135,50.84966548806783,"NaN"],"type":"Point"},"type":"Feature"}},{"id":"6626","label":"Particulate Matter < 10 µm 6626 - PM10 FDMS - procedure, 41R012 - UCCLE","uom":"ug/m3","station":{"properties":{"id":1122,"label":"41R012 - UCCLE"},"geometry":{"coordinates":[4.358538856351676,50.79663163849774,"NaN"],"type":"Point"},"type":"Feature"}},{"id":"6643","label":"Particulate Matter < 10 µm 6643 - PM10 FDMS - procedure, 41WOL1 - WOL.ST.L.","uom":"ug/m3","station":{"properties":{"id":1124,"label":"41WOL1 - WOL.ST.L."},"geometry":{"coordinates":[4.425703684244229,50.85657823741623,"NaN"],"type":"Point"},"type":"Feature"}},{"id":"6693","label":"Particulate Matter < 10 µm 6693 - TEOM-FDMS - procedure, 42M802 - ANTWERPEN","uom":"ug/m3","station":{"properties":{"id":1127,"label":"42M802 - ANTWERPEN"},"geometry":{"coordinates":[4.424399006935331,51.26098970746686,"NaN"],"type":"Point"},"type":"Feature"}},{"id":"6704","label":"Particulate Matter < 10 µm 6704 - ESMFH62-IR - procedure, 42N016 - DESSEL","uom":"ug/m3","station":{"properties":{"id":1132,"label":"42N016 - DESSEL"},"geometry":{"coordinates":[5.163978846331755,51.23365220616215,"NaN"],"type":"Point"},"type":"Feature"}},{"id":"6716","label":"Particulate Matter < 10 µm 6716 - ESMFH62-IR - procedure, 42N035 - AARSCHOT","uom":"ug/m3","station":{"properties":{"id":1137,"label":"42N035 - AARSCHOT"},"geometry":{"coordinates":[4.837618015698611,50.97754137811404,"NaN"],"type":"Point"},"type":"Feature"}},{"id":"6739","label":"Particulate Matter < 10 µm 6739 - FH62I-R - procedure, 42N045 - HASSELT","uom":"ug/m3","station":{"properties":{"id":1140,"label":"42N045 - HASSELT"},"geometry":{"coordinates":[5.368378532294256,50.93971186506705,"NaN"],"type":"Point"},"type":"Feature"}},{"id":"6749","label":"Particulate Matter < 10 µm 6749 - ESMFH62-IR - procedure, 42N054 - WALSHOUTEM","uom":"ug/m3","station":{"properties":{"id":1142,"label":"42N054 - WALSHOUTEM"},"geometry":{"coordinates":[5.103158609453954,50.7117060937334,"NaN"],"type":"Point"},"type":"Feature"}},{"id":"6771","label":"Particulate Matter < 10 µm 6771 - ESMFH62I-R; voor 20040304 ESMFH62I-N,daarvoor FAG-THIs - procedure, 42R020 - VILVOORDE","uom":"ug/m3","station":{"properties":{"id":1146,"label":"42R020 - VILVOORDE"},"geometry":{"coordinates":[4.436720763534066,50.94138711459375,"NaN"],"type":"Point"},"type":"Feature"}},{"id":"6786","label":"Particulate Matter < 10 µm 6786 - ESM FH642-R; voor 20040301 FAG-THIS - procedure, 42R801 - BORGERHOUT","uom":"ug/m3","station":{"properties":{"id":1147,"label":"42R801 - BORGERHOUT"},"geometry":{"coordinates":[4.431821046968842,51.20966253090978,"NaN"],"type":"Point"},"type":"Feature"}},{"id":"6788","label":"Particulate Matter < 10 µm 6788 - ESM FH62I-R - procedure, 42R802 - BORGERHOUT","uom":"ug/m3","station":{"properties":{"id":1148,"label":"42R802 - BORGERHOUT"},"geometry":{"coordinates":[4.43179223079244,51.20951873158326,"NaN"],"type":"Point"},"type":"Feature"}},{"id":"6794","label":"Particulate Matter < 10 µm 6794 - ESMFH62-IR - procedure, 42R811 - SCHOTEN","uom":"ug/m3","station":{"properties":{"id":1149,"label":"42R811 - SCHOTEN"},"geometry":{"coordinates":[4.49136202793544,51.25210341184452,"NaN"],"type":"Point"},"type":"Feature"}},{"id":"6804","label":"Particulate Matter < 10 µm 6804 - ESMFH62-IR - procedure, 42R815 - ZWIJNDRECHT","uom":"ug/m3","station":{"properties":{"id":1153,"label":"42R815 - ZWIJNDRECHT"},"geometry":{"coordinates":[4.332206432310319,51.214698816375346,"NaN"],"type":"Point"},"type":"Feature"}},{"id":"6854","label":"Particulate Matter < 10 µm 6854 - ESMFH62-IR - procedure, 42R841 - MECHELEN","uom":"ug/m3","station":{"properties":{"id":1162,"label":"42R841 - MECHELEN"},"geometry":{"coordinates":[4.469321036547794,51.002525968385235,"NaN"],"type":"Point"},"type":"Feature"}},{"id":"6880","label":"Particulate Matter < 10 µm 6880 -  - procedure, 43H201 - LIEGE","uom":"ug/m3","station":{"properties":{"id":1170,"label":"43H201 - LIEGE"},"geometry":{"coordinates":[5.547464182570812,50.62499156889792,"NaN"],"type":"Point"},"type":"Feature"}},{"id":"6883","label":"Particulate Matter < 10 µm 6883 - GRIMM - procedure, 43M204 - ANGLEUR","uom":"ug/m3","station":{"properties":{"id":1171,"label":"43M204 - ANGLEUR"},"geometry":{"coordinates":[5.611149762819434,50.6119227065531,"NaN"],"type":"Point"},"type":"Feature"}},{"id":"6892","label":"Particulate Matter < 10 µm 6892 - GRIMM - procedure, 43N060 - HAVINNES","uom":"ug/m3","station":{"properties":{"id":1173,"label":"43N060 - HAVINNES"},"geometry":{"coordinates":[3.45762442718173,50.616718401793705,"NaN"],"type":"Point"},"type":"Feature"}},{"id":"6900","label":"Particulate Matter < 10 µm 6900 - GRIMM - procedure, 43N063 - Corroy-Le-Grand","uom":"ug/m3","station":{"properties":{"id":1174,"label":"43N063 - Corroy-Le-Grand"},"geometry":{"coordinates":[4.668287682824636,50.65543910340031,"NaN"],"type":"Point"},"type":"Feature"}},{"id":"6911","label":"Particulate Matter < 10 µm 6911 - GRIMM - procedure, 43N067 - MEMBACH","uom":"ug/m3","station":{"properties":{"id":1177,"label":"43N067 - MEMBACH"},"geometry":{"coordinates":[5.9927527191870515,50.612277528133816,"NaN"],"type":"Point"},"type":"Feature"}},{"id":"6919","label":"Particulate Matter < 10 µm 6919 - GRIMM - procedure, 43N070 - MONS","uom":"ug/m3","station":{"properties":{"id":1178,"label":"43N070 - MONS"},"geometry":{"coordinates":[3.939714325523839,50.465192156426696,"NaN"],"type":"Point"},"type":"Feature"}},{"id":"6926","label":"Particulate Matter < 10 µm 6926 - GRIMM - procedure, 43N073 - VEZIN","uom":"ug/m3","station":{"properties":{"id":1179,"label":"43N073 - VEZIN"},"geometry":{"coordinates":[4.988422954092517,50.50271634104244,"NaN"],"type":"Point"},"type":"Feature"}},{"id":"6936","label":"Particulate Matter < 10 µm 6936 - GRIMM - procedure, 43N085 - VIELSALM","uom":"ug/m3","station":{"properties":{"id":1180,"label":"43N085 - VIELSALM"},"geometry":{"coordinates":[6.00173628853782,50.30320782818842,"NaN"],"type":"Point"},"type":"Feature"}},{"id":"6943","label":"Particulate Matter < 10 µm 6943 - GRIMM - procedure, 43N093 - SINSIN","uom":"ug/m3","station":{"properties":{"id":1181,"label":"43N093 - SINSIN"},"geometry":{"coordinates":[5.235168654774102,50.27447751094948,"NaN"],"type":"Point"},"type":"Feature"}},{"id":"6950","label":"Particulate Matter < 10 µm 6950 - GRIMM - procedure, 43N100 - DOURBES","uom":"ug/m3","station":{"properties":{"id":1182,"label":"43N100 - DOURBES"},"geometry":{"coordinates":[4.594762762155874,50.09568343419087,"NaN"],"type":"Point"},"type":"Feature"}},{"id":"6957","label":"Particulate Matter < 10 µm 6957 - GRIMM - procedure, 43N113 - SAINT-ODE","uom":"ug/m3","station":{"properties":{"id":1183,"label":"43N113 - SAINT-ODE"},"geometry":{"coordinates":[5.593016914066438,50.0270290173477,"NaN"],"type":"Point"},"type":"Feature"}},{"id":"6963","label":"Particulate Matter < 10 µm 6963 - GRIMM - procedure, 43N121 - OFFAGNE","uom":"ug/m3","station":{"properties":{"id":1184,"label":"43N121 - OFFAGNE"},"geometry":{"coordinates":[5.202387466800059,49.87712849132921,"NaN"],"type":"Point"},"type":"Feature"}},{"id":"6970","label":"Particulate Matter < 10 µm 6970 - GRIMM - procedure, 43N132 - Habay-La-Neuve","uom":"ug/m3","station":{"properties":{"id":1185,"label":"43N132 - Habay-La-Neuve"},"geometry":{"coordinates":[5.630397740609139,49.71928118788098,"NaN"],"type":"Point"},"type":"Feature"}},{"id":"6993","label":"Particulate Matter < 10 µm 6993 - GRIMM - procedure, 43R221 - LIEGE","uom":"ug/m3","station":{"properties":{"id":1190,"label":"43R221 - LIEGE"},"geometry":{"coordinates":[5.6278352908526506,50.65844441678642,"NaN"],"type":"Point"},"type":"Feature"}},{"id":"7000","label":"Particulate Matter < 10 µm 7000 - GRIMM - procedure, 43R222 - SERAING","uom":"ug/m3","station":{"properties":{"id":1191,"label":"43R222 - SERAING"},"geometry":{"coordinates":[5.570222814112576,50.61341250148177,"NaN"],"type":"Point"},"type":"Feature"}},{"id":"7008","label":"Particulate Matter < 10 µm 7008 - GRIMM - procedure, 43R223 - JEMEPPE","uom":"ug/m3","station":{"properties":{"id":1192,"label":"43R223 - JEMEPPE"},"geometry":{"coordinates":[5.516404755142993,50.62067087883907,"NaN"],"type":"Point"},"type":"Feature"}},{"id":"7021","label":"Particulate Matter < 10 µm 7021 - GRIMM - procedure, 43R240 - ENGIS","uom":"ug/m3","station":{"properties":{"id":1195,"label":"43R240 - ENGIS"},"geometry":{"coordinates":[5.397446050127326,50.583614347368496,"NaN"],"type":"Point"},"type":"Feature"}},{"id":"7034","label":"Particulate Matter < 10 µm 7034 - ESM 62I-R;voor 20040311 62I-N,nadien ESMFH62I-R - procedure, 44M705 - ROESELARE","uom":"ug/m3","station":{"properties":{"id":1198,"label":"44M705 - ROESELARE"},"geometry":{"coordinates":[3.152401590470015,50.945359241350246,"NaN"],"type":"Point"},"type":"Feature"}},{"id":"7042","label":"Particulate Matter < 10 µm 7042 - ESMFH62-IR - procedure, 44N012 - MOERKERKE","uom":"ug/m3","station":{"properties":{"id":1200,"label":"44N012 - MOERKERKE"},"geometry":{"coordinates":[3.3625358887016037,51.25457362243622,"NaN"],"type":"Point"},"type":"Feature"}},{"id":"7054","label":"Particulate Matter < 10 µm 7054 - FH62I-R; voor 20040614 FH62I-N - procedure, 44N029 - HOUTEM","uom":"ug/m3","station":{"properties":{"id":1202,"label":"44N029 - HOUTEM"},"geometry":{"coordinates":[2.5823227814897467,51.016280111137796,"NaN"],"type":"Point"},"type":"Feature"}},{"id":"7069","label":"Particulate Matter < 10 µm 7069 - ESM FH 62I-R - procedure, 44N052 - ZWEVEGEM","uom":"ug/m3","station":{"properties":{"id":1206,"label":"44N052 - ZWEVEGEM"},"geometry":{"coordinates":[3.322494319037278,50.81487386991962,"NaN"],"type":"Point"},"type":"Feature"}},{"id":"7086","label":"Particulate Matter < 10 µm 7086 - ESMFH62I-R;voor 20040316 62I-N,daarvoor FAG-THIs - procedure, 44R701 - GENT","uom":"ug/m3","station":{"properties":{"id":1207,"label":"44R701 - GENT"},"geometry":{"coordinates":[3.729298171690588,51.05833171626465,"NaN"],"type":"Point"},"type":"Feature"}},{"id":"7092","label":"Particulate Matter < 10 µm 7092 - ESM FH 62I-R - procedure, 44R710 - DESTELBERGE","uom":"ug/m3","station":{"properties":{"id":1208,"label":"44R710 - DESTELBERGE"},"geometry":{"coordinates":[3.7752623896453614,51.06127769765444,"NaN"],"type":"Point"},"type":"Feature"}},{"id":"7106","label":"Particulate Matter < 10 µm 7106 - FH 62I-R - procedure, 44R731 - EVERGEM","uom":"ug/m3","station":{"properties":{"id":1212,"label":"44R731 - EVERGEM"},"geometry":{"coordinates":[3.739504220441929,51.12469051189974,"NaN"],"type":"Point"},"type":"Feature"}},{"id":"7117","label":"Particulate Matter < 10 µm 7117 - ESMFH62I-N, voor 20040316 62I-N, daarvoor FAG-THIs - procedure, 44R740 - Sint-Kruiswinkel","uom":"ug/m3","station":{"properties":{"id":1213,"label":"44R740 - Sint-Kruiswinkel"},"geometry":{"coordinates":[3.8087354304127436,51.15013609000057,"NaN"],"type":"Point"},"type":"Feature"}},